NÚM. AEP,EDIFICIOS,MUNICIPIO,REGIÓN,DIRECCIÓN FÍSICA,Latitud,Longitud,Location
9400,DESTACAMENTO DE LA POLICÍA CASTAÑER,LARES,AGUADILLA,"CARR. #135, KM. 64.3, SECTOR CASTAÑER, BO. BARTOLO, LARES, P.R.",18.180125,-66.83301,"(18.180125, -66.83301)"
9031,DESTACAMENTO POLICÍA-SAN ANTONIO,AGUADILLA,AGUADILLA,"CARR. #107, INTERIOR, ESQ. CALLE LAS DELICIAS BO SAN ANTONIO, ARECIBO, P.R.",18.495116,-67.097797,"(18.495116, -67.097797)"
9702,DESTACAMENTO DE LA POLICÍA BO. ANGELES,UTUADO,ARECIBO,"CARR. #602, KM. 0.6, BO LOS ANGELES, UTUADO, P.R.",18.265483,-66.700487,"(18.265483, -66.700487)"
9703,DESTACAMENTO DE LA POLICÍA BO. MAMEYES,UTUADO,ARECIBO,"CARR. #140, KM.31.0, BO. MAMEYE, UTUADO, P.R.",18.294598,-66.62914,"(18.294598, -66.62914)"
9450,DESTACAMENTO DE LA POLICÍA-MONTE BELLO,MANATÍ,ARECIBO,"CARR. 3642, BO. MONTEBELLO, MANATÍ, P.R.",18.390407,-66.495663,"(18.390407, -66.495663)"
3111,CUARTEL DE LA POLICÍA BAYAMÓN SUR,BAYAMÓN,BAYAMÓN,"CARR. #831, KM. 2.2, BO. MINILLAS, BAYAMÓN, P.R.",18.362061,-66.15455,"(18.362061, -66.15455)"
9620,DESTACAMENTO POLICÍA-BO. ROSARÍO ,SAN GERMÁN,MAYAGUEZ,"BO. ROSARÍO, SAN GERMÁN, P.R.",,,
3450,CUARTEL DE LA POLICÍA,MANATÍ,ARECIBO,"CARR. # 2, KM. 48.6 MANATÍ, P.R.",18.4315659883,-66.4826089268,"(18.431566, -66.482609)"
9240,DESTACAMENTO DE LA POLICÍA,CULEBRA,HUMACAO,"BO. FULLADOSA, CARR. #998, CULEBRA, P.R.",18.3017610928,-65.2972984729,"(18.301761, -65.297298)"
3680,CUARTEL DE LA POLICÍA,TOA BAJA,BAYAMÓN,"BO. PUEBLO, CALLE LUIS MUÑOZ RIVERA, TOA BAJA, P.R.",18.4400551604,-66.2535216213,"(18.440055, -66.253522)"
3390,CUARTEL DE LA POLICÍA,LAJAS,MAYAGUEZ,"CALLE FERROCARRIL, LAJAS, P.R.",18.0497604296,-67.057842921,"(18.04976, -67.057843)"
3620,CUARTEL DE LA POLICÍA,SAN GERMÁN,MAYAGUEZ,"CARR. #2 BO. RETIRO, SAN GERMÁN, P.R.",18.0811016717,-67.0351229706,"(18.081102, -67.035123)"
3040,CUARTEL DE LA POLICÍA,AGUAS BUENAS,CAGUAS,"CALLE SARGENTO RAMON L. REYES ROSA, FINAL, AGUAS BUENAS, PR",18.257620082,-66.1069486399,"(18.25762, -66.106949)"
3110,COMANDANCIA DE LA POLICÍA,BAYAMÓN,BAYAMÓN,"EXPRESO RÍO HONDO, BO. JUAN SÁNCHEZ, BAYAMÓN, P.R.",18.4153666649,-66.1475682995,"(18.415367, -66.147568)"
3073,DEPOSITO DE VEHICULOS HURTADOS,ARECIBO    ,ARECIBO,"CARR. #22 SECTOR EL TANQUE BO. SAN FRANCISCO, ARECIBO, P.R.",18.4578127289,-66.7313253527,"(18.457813, -66.731325)"
3344,NUEVA COMANDANCIA DE HUMACAO,HUMACAO,HUMACAO,"CALLE TOMAS BOILE #50, AL LADO DE LA UPR DE HUMACAO, P.R.",18.1483300357,-65.8409323247,"(18.14833, -65.840932)"
3290,CUARTEL DE LA POLICÍA,GUAYANILLA,PONCE,"CALLE MUÑOZ RIVERA, GUAYANILA, P.R.",18.0159223292,-66.7892254632,"(18.015922, -66.789225)"
3884,CUARTEL POLICÍA DE HATO REY OESTE,SAN JUAN,CAROLINA,"INT. AVE. ELEONOR ROOSEVELT & CALLE BARIDA #215, SAN JUAN, P.R.",18.4200997513,-66.0615038942,"(18.4201, -66.061504)"
3281,DIVISIÓN VEHÍCULOS HURTADOS ,GUAYAMA,GUAYAMA,"CARR. #3 K,. 69, BO. VILLODAS, GUAYAMA, P.R.",17.9652043621,-66.1873393049,"(17.965204, -66.187339)"
3060,CUARTEL DE LA POLICÍA,AÑASCO,MAYAGUEZ,"CARR. #109, Km. 2.7 AÑASCO, P.R.",18.2808947615,-67.1441009977,"(18.280895, -67.144101)"
3520,CUARTEL DE LA POLICÍA,NARANJITO,BAYAMÓN,"BO. ACHIOTE, NARANJITO, P.R.",18.302032393,-66.2507351506,"(18.302032, -66.250735)"
3633,ESTACIÓN POLICÍA CALLE LOÍZA,SAN JUAN,CAROLINA,"CALLE LOÍZA, SAN JUAN, P.R.",18.4495601525,-66.0392225142,"(18.44956, -66.039223)"
3440,CUARTEL DE LA POLICÍA,LUQUILLO,CAROLINA,"CALLE 14 DE JULIO, LUQUILLO, P.R.",18.375538976,-65.7167394281,"(18.375539, -65.716739)"
3120,CUARTEL DE LA POLICÍA,CABO ROJO,MAYAGUEZ,"CARR. #308, KM. 3.6, SECTOR PUERTO REAL CABO ROJO, P.R.",18.0898660732,-67.1460922631,"(18.089866, -67.146092)"
3634,ESTACIÓN POLICÍA SAN JUAN-SANTURCE,SAN JUAN,CAROLINA,"AVENIDA MUÑOZ RIVERA, ESQUINA CALLE CERRA, SAN JUAN, P.R.",18.4484441043,-66.081716022,"(18.448444, -66.081716)"
3140,CUARTEL DE LA POLICÍA,CAMUY,AGUADILLA,"CARR. #485, KM. 0.2, CAMUY, P.R.",18.4868652461,-66.847779,"(18.486865, -66.847779)"
3632,ESTACIÓN POLICÍA PUERTO NUEVO,SAN JUAN,CAROLINA,"AVENIDA SAN PATRICIO, INTERSECCIÓN CALLE #30 URB. VILLA LAS LOMAS, SAN JUAN, P.R.",18.3950011663,-66.0919701796,"(18.395001, -66.09197)"
3564,ESTACIÓN POLICÍA EL TUQUE,PONCE,PONCE,"OESTE CALLE #29, ENTRANDO POR LA URB. INDUSTRIAL PUNTO ORO, PONCE, P.R.",17.9908824541,-66.6467068278,"(17.990882, -66.646707)"
3410,CUARTEL DE LA POLICÍA,LAS MARÍAS,MAYAGUEZ,"CARR. #120, KM. 0.1, LAS MARÍAS, P.R.",18.2508830833,-66.9888620758,"(18.250883, -66.988862)"
3150,COMANDANCIA DE LA POLICÍA,CAROLINA,CAROLINA,"AVE. 65 DE INFANTERÍA, CAROLINA, P.R.",18.3798266958,-65.960941331,"(18.379827, -65.960941)"
3130,COMANDANCIA DE LA POLICÍA,CAGUAS,ADMINISTRADOR,"AVE. RAFAEL CORDERO #98, INT. JOSÉ VILLARES",18.2363666628,-66.0293501021,"(18.236367, -66.02935)"
3341,VEHÍCULOS HURTADOS Y DIV. DE TRÁNSITO,HUMACAO,HUMACAO,"CALLE TOMAS BOILE #50, AL LADO DE LA UPR DE HUMACAO, P.R.",18.1478181756,-65.8411328393,"(18.147818, -65.841133)"
3030,COMANDANCIA DE LA POLICÍA,AGUADILLA,AGUADILLA,"AVENIDA VICTORIA, AGUADILLA, P.R.",18.4144489449,-67.1532321842,"(18.414449, -67.153232)"
3500,CUARTEL DE LA POLICÍA,MOROVIS,ARECIBO,"CARR. #155, KM. 48.2 MOROVIS, P.R.",18.3295764078,-66.4062810012,"(18.329576, -66.406281)"
3070,COMANDANCIA DE LA POLICÍA,ARECIBO    ,ARECIBO,"AVENIDA DE HOSTOS, ARECIBO, P.R.",18.470279425,-66.7257353133,"(18.470279, -66.725735)"
3670,CUARTEL DE LA POLICÍA,TOA ALTA,BAYAMÓN,"BO. CONTORNO, NARANJITO, P.R.",18.3860260011,-66.2526550177,"(18.386026, -66.252655)"
3484,COMANDANCIA DE LA POLICÍA,MAYAGUEZ,MAYAGUEZ,"AVE. CORAZONES, ESQUINA P.R. #2, BO. SABALOS, MAYAGUEZ, P.R.",18.1741992341,-67.1462499264,"(18.174199, -67.14625)"
3690,CUARTEL DE LA POLICÍA,TRUJILLO ALTO,CAROLINA,"CARR. 181, CALLE MUÑOZ RIVERA #2, TRUJILLO ALTO, P.R.",18.3565266029,-66.0051290564,"(18.356527, -66.005129)"
3180,CUARTEL DE LA POLICÍA,CEIBA,HUMACAO,"AVE. LAURO PIÑEIRO, ESQ. CARLOS FIGUEROA, CEIBA, P.R.",18.2610815141,-65.6478232558,"(18.261082, -65.647823)"
3561,ESTACIÓN POLICÍA SECTOR CLAUSEL,PONCE,PONCE,"CALLE VILLA, ESQ. CALLE CENTRAL, BO. CLAUSELL, PONCE, P.R.",18.0102267743,-66.6293564053,"(18.010227, -66.629356)"
3580,CUARTEL DE LA POLICÍA,RINCÓN,AGUADILLA,"CALLE NUEVA, RINCÓN, P.R. ",18.3379574844,-67.2502601201,"(18.337957, -67.25026)"
3250,CUARTEL DE LA POLICÍA,DORADO,BAYAMÓN,"CARR. #693, KM. 7.1, DORADO, P.R.",18.4616455226,-66.270579812,"(18.461646, -66.27058)"
1540,CUARTEL DE LA POLICÍA-PTO. NUEVO,SAN JUAN,ADMINISTRADOR&FA,"AVE. FRANKLIN DELANO ROOSEVELT PUERTO NUEVO, HATO REY, SAN JUAN, P.R.",18.4133646478,-66.0857478228,"(18.413365, -66.085748)"
3430,CUARTEL DE LA POLICÍA,CANOVANAS,CAROLINA,"CALLE CORCHADO FINAL, CANÓVANAS, P.R.",18.3779004692,-65.8990357822,"(18.3779, -65.899036)"
3710,CUARTEL DE LA POLICÍA,VEGA ALTA,ARECIBO,"CALLE MUÑOZ RIVERA, VEGA ALTA , P.R.",18.4125273944,-66.3246968448,"(18.412527, -66.324697)"
3135,COMANDANCIA DE LA POLICÍA,CAGUAS,CAGUAS,"AVE. JOSÉ MERCADO, INTERSECCIÓN CALLE CRISTÓBAL COLÓN, CAGUAS, PR",18.2305961407,-66.0388100916,"(18.230596, -66.03881)"
3590,CUARTEL DE LA POLICÍA,RÍO GRANDE,CAROLINA,"CALLE DEL CARMEN, RÍO GRANDE, P.R.",18.379101236,-65.8308534854,"(18.379101, -65.830853)"
3210,CUARTEL DE LA POLICÍA ,COAMO,GUAYAMA,"CARR. #150, KM. 19.6, CALLE BALDORIOTY, COAMO, P.R.",18.0805817238,-66.3622216581,"(18.080582, -66.362222)"
3320,CUARTEL DE LA POLICÍA,HATILLO,ARECIBO,"CARR. #119, KM. 1.9 HATILLO, P.R.",18.4865016526,-66.8274101368,"(18.486502, -66.82741)"
3650,CUARTEL DE LA POLICÍA,SAN SEBASTÍAN,AGUADILLA,"CALLE SEVERO ARONA SAN SEBASTÍAN, P.R.",18.3343161786,-66.9907473498,"(18.334316, -66.990747)"
3568,DROGAS Y  NARCÓTICOS,PONCE,PONCE,"INT. CARR. EST. PR-1Y AVE. LOS CAOBOS BO. SABANETA, PONCE, P.R.",18.0039261603,-66.5853683783,"(18.003926, -66.585368)"
3330,CUARTEL DE LA POLICÍA,HORMIGUEROS,MAYAGUEZ,"CARR. #103 HORMIGUEROS, P.R.",18.1380799726,-67.1322801099,"(18.13808, -67.13228)"
3636,ESTACION POLICÍA DE RÍO PIEDRAS- SAN AGUSTÍN,SAN JUAN,CAROLINA,"CALLE ARCIDES REYES, ESQ. MARGINAL 65 INFANTERÍA, CAROLINA, P.R.",18.3950626656,-66.0353353405,"(18.395063, -66.035335)"
3530,CUARTEL DE LA POLICÍA,OROCOVIS,ARECIBO,"CALLE HOSPITAL, OROCOVIS, P.R.",18.2238298318,-66.3920450948,"(18.22383, -66.392045)"
3151,ESTACION POLICÍA DEP. ROBERTO CLEMENTE,CAROLINA,CAROLINA,"ROBERTO CLEMENTE, AVE. ITURREGUI, CAROLINA, P.R.",18.4191142941,-65.9985981042,"(18.419114, -65.998598)"
1690,COMPLEJO SEGURIDAD-CUARTEL POLICÍA ESTATAL,TRUJILLO ALTO,CAROLINA,"CARR. 848, BO. LAS CUEVAS, TRUJILLO ALTO, P.R.",18.3671492739,-66.0234675095,"(18.367149, -66.023468)"
3230,CUARTEL DE LA POLICÍA,COROZAL,BAYAMÓN,"CARR. #159, KM. 4.6, COROZAL, P.R.",18.3416946012,-66.3212383929,"(18.341695, -66.321238)"
3681,POLIGONO DE TIROS,TOA BAJA,BAYAMÓN,"CARR. 870 FINAL BARRIO PALO SECO,  TOA BAJA, P.R.",18.4716766285,-66.1359557947,"(18.471677, -66.135956)"
3200,CUARTEL DE LA POLICÍA,CIDRA,CAGUAS,"CALLE MUÑOZ RIVERA #46, CIDRA, P.R.",18.1724957475,-66.1608082542,"(18.172496, -66.160808)"
3631,ESTACIÓN PATRULLA DE TRÁNSITO - SAN JUAN ,SAN JUAN,CAROLINA,"CALLE ELEONOR ROOSELVELT ESQ. CALLE BONAFUX, SAN JUAN, P.R.",18.4192518937,-66.0612901231,"(18.419252, -66.06129)"
3480,COMANDANCIA DE LA POLICÍA,MAYAGUEZ,MAYAGUEZ,"CALLE LEÓN, MAYAGUEZ, P.R.",18.19699206,-67.144243461,"(18.196992, -67.144243)"
3020,CUARTEL DE LA POLICÍA,AGUADA,AGUADILLA,"CARR. #2, Km. 22.1, AGUADA, P.R.",18.3815572372,-67.1949261366,"(18.381557, -67.194926)"
3660,CUARTEL DE LA POLICÍA,SANTA ISABEL,GUAYAMA,"CARR. #538, CALLE CELIS AGUILERA, BO. PLAYA, SANTA ISABEL, P.R.",17.9608483202,-66.4052860386,"(17.960848, -66.405286)"
3010,CUARTEL DE LA POLICÍA,ADJUNTAS,PONCE,"CALLE M. BENÍTEZ, ESQUINA CALLE GONZÁLEZ, ADJUNTAS, P.R.",18.1664580156,-66.7248970839,"(18.166458, -66.724897)"
3770,CABALLERISAS POLICÍA MONTADA-CANINA,LOÍZA,CAROLINA,"BOCA DE CANGREJOS, CARR. 187, KM 11.0, LOÍZA, P.R.",18.4554636858,-65.9836486484,"(18.455464, -65.983649)"
3190,CUARTEL DE LA POLICÍA,CIALES,ARECIBO,"CALLE #2 CIALES, P.R.",18.3376134574,-66.4698155328,"(18.337613, -66.469816)"
3400,CUARTEL DE LA POLICÍA,LARES,AGUADILLA,"CALLE SAN JOSÉ, LARES, P.R.",18.2964250644,-66.8772914892,"(18.296425, -66.877291)"
3470,CUARTEL DE LA POLICÍA,MAUNABO,GUAYAMA,"AVE. KENNEDY, CALLE BARCELÓ, MAUNABO, P.R.",18.0057922237,-65.9002844525,"(18.005792, -65.900284)"
3280,COMANDANCIA DE LA POLICÍA,GUAYAMA,GUAYAMA,"URB. HACIENDA, EXTENSIÓN CALLE CARIBE SUR HOSPITAL DE ÁREA, GUAYAMA, P.R.",17.9723154994,-66.1149696688,"(17.972315, -66.11497)"
3565,DIVISIÓN VEHÍCULOS HURTADOS Y TRÁNSITO,PONCE,PONCE,"CARR. #2, KM 123.O, BO. SABANETAS, PONCE, P.R.",18.0084012825,-66.5758295274,"(18.008401, -66.57583)"
1110,SUPERINTENDENCIA DE LA POLICÍA,SAN JUAN,ADMINISTRADOR&FA,"AVENIDA FRANKLIN DELANO ROOSEVELT PUERTO NUEVO, HATO REY, SAN JUAN, P.R.",18.417160946,-66.0777814551,"(18.417161, -66.077781)"
3640,CUARTEL DE LA POLICÍA,SAN LORENZO,CAGUAS,CALLE LUIS MUÑOZ RIVERA #188,18.185658686,-65.963072816,"(18.185659, -65.963073)"
9590,DESTACAMENTO DE LA POLICÍA - PALMER,RÍO GRANDE,CAROLINA,"CARR. #955, KM. 5.8, POBLADO PALMER, RÍO GRANDE, P.R.",18.3700277348,-65.7712289439,"(18.370028, -65.771229)"
3080,CUARTEL DE LA POLICÍA,ARROYO,GUAYAMA,"CARR. #178, KM.1.8, CALLE MARCELINO, ARROYO, P.R.",17.965805273,-66.0644173066,"(17.965805, -66.064417)"
3170,CUARTEL DE LA POLICÍA,CAYEY,CAGUAS,"CALLE EVARISTO VÁZQUEZ, CAYEY, P.R.",18.1158993127,-66.1599565267,"(18.115899, -66.159957)"
3360,CUARTEL DE LA POLICÍA,JAYUYA,PONCE,"CARR. #532, KM.0.1 JAYUYA, P.R.",18.2192593104,-66.5950116284,"(18.219259, -66.595012)"
3840,CUARTEL DE LA POLICÍA,FLORIDA,ARECIBO,"CARR. #140, KM. 55.5, BO. FLORIDA ADENTRO, FLORIDA, P.R.",18.36677477,-66.567215949,"(18.366775, -66.567216)"
3540,CUARTEL DE LA POLICÍA,PATILLAS,GUAYAMA,"CARR. #3 , KM. 127.0, EDIFICIO 64, PATILLAS, P.R.",18.0025014106,-66.0130849749,"(18.002501, -66.013085)"
3350,CUARTEL DE LA POLICÍA,ISABELA,AGUADILLA,"AVENIDA FERROCARRIL, ISABELA, P.R.",18.4987540894,-67.0225593303,"(18.498754, -67.022559)"
3310,CUARTEL DE LA POLICÍA,GURABO,CAGUAS,"CALLE EUGENIO SANCHEZ LOPEZ, FINAL",18.2556085493,-65.9745598938,"(18.255609, -65.97456)"
3570,CUARTEL DE LA POLICÍA,QUEBRADILLAS,AGUADILLA,"BO. CACAO, QUEBRADILLAS, P.R.",18.4718741578,-66.9372362296,"(18.471874, -66.937236)"
3220,CUARTEL DE LA POLICÍA,COMERÍO,BAYAMÓN,"CARR. #778, COMERÍO, P.R.",18.2165831254,-66.2251467639,"(18.216583, -66.225147)"
3460,CUARTEL DE LA POLICÍA,MARICAO,MAYAGUEZ,"CARR. # 120, KM. 11.4 MARICAO, P.R.",18.1832074614,-66.9808546999,"(18.183207, -66.980855)"
3260,CUARTEL DE LA POLICÍA,FAJARDO,HUMACAO,"CALLE VICTORÍA NÚM. 9, FAJARDO, P.R.",18.325308603,-65.6551686572,"(18.325309, -65.655169)"
3300,CUARTEL DE LA POLICÍA,GUAYNABO,ADMINISTRADOR&FA,"CARR. #20, KM. 5.3, GUAYNABO, P.R.",18.362179831,-66.1120085574,"(18.36218, -66.112009)"
3563,COMANDANCIA NUEVA ,PONCE,PONCE,"AVE. HOSTOS, AL LADO DEL CENTRO GUBERNAMENTAL",18.0045959942,-66.5851845265,"(18.004596, -66.585185)"
3550,CUARTEL DE LA POLICÍA,PEÑUELAS,PONCE,"CARR. 3383, KM. 0.5, BO. CUEVAS, PEÑUELAS, P.R.",18.0555062177,-66.7247368462,"(18.055506, -66.724737)"
3730,CUARTEL DE LA POLICÍA,VIEQUES,HUMACAO,"CARRETERA 200 K.2 VIEQUES, P.R.",18.1435223693,-65.4420776384,"(18.143522, -65.442078)"
3760,CUARTEL DE LA POLICÍA  ,YAUCO,PONCE,"INTERSECCIÓN CARR. #128 Y CARR. #368 BO. SUSUA BAJA, YAUCO, P.R.",18.0369976005,-66.8597090906,"(18.036998, -66.859709)"
3700,COMANDANCIA DE LA POLICÍA,UTUADO,ARECIBO,NORTE URB. CABRERA UTUADO P.R.,18.267171873,-66.7120001502,"(18.267172, -66.712)"
3050,CUARTEL DE LA POLICÍA,AIBONITO,CAGUAS,"CALLE JULIO ROSARIO #198, AIBONITO, PR",18.1395839281,-66.2692797617,"(18.139584, -66.26928)"
3340,COMANDANCIA DE LA POLICÍA,HUMACAO,HUMACAO,"CALLE FONT. MARTELLO, ESQUINA CALLE DUFRESNE, HUMACAO, P.R.",18.151402153,-65.8293490387,"(18.151402, -65.829349)"
3270,CUARTEL DE LA POLICÍA,GUÁNICA,MAYAGUEZ,"CALLE 13 DE MARZO, EAQUINA CARR. #333, GUÁNICA,P.R.",17.971655161,-66.9051806933,"(17.971655, -66.905181)"
3510,CUARTEL DE LA POLICÍA,NAGUABO,HUMACAO,"CALLE CELIS AGUILAR, NAGUABO, P.R.",18.2114467015,-65.7381496753,"(18.211447, -65.73815)"
3490,CUARTEL DE LA POLICÍA,MOCA,AGUADILLA,"CARR. # 110, ESQUINA CALLE BALDORIOTY, MOCA, P.R.",18.3945420016,-67.1133097962,"(18.394542, -67.11331)"
3566,UNIDAD MARÍTIMA,PONCE,PONCE,"CALLE BONAIRE BO. PLAYA, PONCE, P.R.",17.9842737215,-66.6285334553,"(17.984274, -66.628533)"
3380,CUARTEL DE LA POLICÍA,JUNCOS,HUMACAO,"CALLE BASILIA VELÁZQUEZ, JUNCOS, P.R.",18.2319790985,-65.9202859774,"(18.231979, -65.920286)"
3100,CUARTEL DE LA POLICÍA,BARRANQUITAS,BAYAMÓN,"CARR. #719 BARRANQUITAS, P.R.",18.1848734884,-66.3061268086,"(18.184873, -66.306127)"
3420,CUARTEL DE LA POLICÍA,LAS PIEDRAS,HUMACAO,"CALLE CELSO BARBOSA, #181, LAS PIEDRAS, PR",18.1847616317,-65.871578459,"(18.184762, -65.871578)"
3302,CUARTEL DE LA POLICÍA JUAN DOMINGO,GUAYNABO,BAYAMÓN,"AVE. JUAN DOMINGO, GUAYNABO, P.R.",18.397366245,-66.1227162912,"(18.397366, -66.122716)"
3830,CUARTEL DE LA POLICÍA,LOÍZA,CAROLINA,"CARR. # 187, KM. 11.0, LOÍZA, P.R.",18.4335886556,-65.8763310531,"(18.433589, -65.876331)"
9120,DESTACAMENTO E LA POLICÍA BO. BOQUERÓN,CABO ROJO,MAYAGUEZ,"CARR. #101, KM. 3.1, BO. BOQUERÓN, CABO ROJO, P.R.",18.0279127792,-67.1672518882,"(18.027913, -67.167252)"
3112,DIVISIÓN VEÍICULOS HURTADOS Y TRANSITO,BAYAMÓN,BAYAMÓN,"EXPRESO RÍO HONDO, BO JUAN SÁNCHEZ, BAYAMÓN P.R.",18.41855473,-66.1464180498,"(18.418555, -66.146418)"
3600,CUARTEL DE LA POLICÍA,SABANA GRANDE,MAYAGUEZ,"CARR. #2, KM. 214.6 SABANA GRANDE, P.R. ",18.0783791012,-66.9637854055,"(18.078379, -66.963785)"
3114,CUARTEL PRECINTO DE BAYAMÓN,BAYAMÓN,BAYAMÓN,"CARR. #861 SECTOR LOS MILLONES, BAYAMÓN, P.R.",18.3634142506,-66.150326382,"(18.363414, -66.150326)"
3780,CUARTEL DE LA POLICÍA DE LEVITTOWN,TOA BAJA,BAYAMÓN,"BARRIO SABANA SECA CALLE LUISA URB. LEVITTOWN TOA BAJA, P.R.",18.4478757682,-66.1808854779,"(18.447876, -66.180885)"
