"caso","tr_mite","fecha_de_radicaci_n","a_o_de_radicaci_n","mes_de_radicaci_n","catastro","municipio","direcci_n","regi_n","status","adjudicado_o_pendiente","fecha_de_adjudicaci_n","siglas","x","y","radicado_por_pa","nombre_del_proyecto","publico_o_privado","rural_o_urbano","due_o_del_proyecto","location_1","lat","lon"
"2012-099720-PUS-13681","Permiso de Uso Completo","2015-05-06T16:17:00.000","2015","2015.05","188-040-158-17","Utuado","Interior Carr. 111 Ave . , Km. 1.2, Sector Menchaca, Viví Abajo, Utuado","Arecibo","Cancelado","Adjudicado","2015-06-11T00:00:00.000","PUS-CONV","172729.12149401","248157.38223336","No","Alejandro Diaz ' Cerveseria Franceshi '","Privado","Rural","ALEJANDRO  RIOS ","(18.2682565969867, -66.6912321073087)","18.268256596986699","-66.691232107308707"
"2013-122020-PUS-13661","Permiso de Uso Certificado","2015-04-26T15:51:00.000","2015","2015.04","221-000-002-35","Barranquitas","Carr. 152, , Km 7.6 Int., Sector El Farrallon, Quebradillas, Barranquitas","Ponce","Expedido","Adjudicado","2015-04-28T00:00:00.000","PUS-CERT","214896.837548699","244479.743857439","No","Residencia Yomaris Lopez","Privado","Rural","YOMARIS LOPEZ ","(18.2351572208693, -66.2924807645354)","18.235157220869301","-66.292480764535398"
"2011-799440-PUS-13641","Permiso de Uso Certificado","2015-03-09T15:42:00.000","2015","2015.03","080-078-633-29","Manatí","Pr-643, 7.0, Rio Arriba Saliente, Río Arriba Saliente, Manatí","Arecibo","Expedido","Adjudicado","2015-05-20T00:00:00.000","PUS-CERT","197778.915669179","260576.24617984","No","Construcción Residencia Omar A. Matias Negron","Privado","Rural","OMAR MATIAS NEGRON","(18.3806343078613, -66.4543533325195)","18.3806343078613","-66.454353332519503"
"2014-243880-PUS-13621","Permiso de Uso Certificado","2015-03-02T15:23:00.000","2015","2015.03","131-025-080-75","Lares","Carr. 129, 21.0, Bo. Callejones, Callejones, Lares","Arecibo","Cancelado","Adjudicado","2015-04-03T00:00:00.000","PUS-CERT","156437.0697931","255307.63381192001","No","Residencia Gonzalez Gonzalez Trust","Privado","Rural","GERALDO GONZÁLEZ GONZÁLEZ","(18.332592010498, -66.8454513549804)","18.332592010498001","-66.845451354980398"
"2013-149360-PUS-13601","Permiso de Uso Certificado","2015-02-27T15:43:00.000","2015","2015.02","366-050-109-16","Juana Díaz","Lote 7 500 Carr. 584, Km. 0.9, Parque Industrial, Amuelas, Juana Díaz","Ponce","Expedido","Adjudicado","2015-03-31T00:00:00.000","PUS-CERT","192724.63493570001","223663.69076807","No","Nuevo Edificio Mfg. de Lentes de Contacto (Fase G)","Privado","Urbano","IVÁN HERNÁNDEZ LÓPEZ","(18.0471229553222, -66.5020523071289)","18.047122955322202","-66.502052307128906"
"2013-178563-PUS-13582","Permiso de Uso Certificado","2015-02-11T09:18:00.000","2015","2015.02","252-063-185-41","San Lorenzo","Pr-183, Km 7.5, Parcela J, Hato, San Lorenzo","Humacao","Expedido","Adjudicado","2015-02-12T00:00:00.000","PUS-CERT","247824.65122413001","240091.46205634001","No","Residencia Sr. José A. Pagán Pinto","Privado","Rural","JOSÉ PAGÁN PINTO","(18.195026397705, -65.9812469482421)","18.195026397705","-65.981246948242102"
"2015-314772-PUS-13581","Permiso de Uso Certificado","2015-02-09T19:32:00.000","2015","2015.02","053-047-009-72","Arecibo","Carr 638 Int 637, Km 5.4, Sector Cuatro Calles, Miraflores, Arecibo","Arecibo","Expedido","Adjudicado","2015-02-10T00:00:00.000","PUS-CERT","177347.12352696","265245.76056591002","No","TOTAL GAS STATION - MIRAFLORES","Privado","Rural","BETSY BARBOSA ALBARRAN","(18.4227027893066, -66.6477508544921)","18.422702789306602","-66.647750854492102"
"2013-224293-PUS-13561","Permiso de Uso Certificado","2015-02-04T09:58:00.000","2015","2015.02","112-054-575-15","Toa Alta","827, 7.7 Int. - Lote C-3, Hacienda El Pilar, Piñas, Toa Alta","Central","Expedido","Adjudicado","2015-02-04T00:00:00.000","PUS-CERT","221762.25932519001","257812.82813420001","No","URBANIZACION HACIENDA EL PILAR","Privado","Urbano","JAIME CASELLAS ","(18.3552360534667, -66.2269744873046)","18.355236053466701","-66.226974487304602"
"2011-035589-PUS-13541","Permiso de Uso Certificado","2015-01-29T14:42:00.000","2015","2015.01","303-000-002-47","Las Piedras","Carr.917 Sector Piro Santana, 4.8, Montones Iii , Montones, Las Piedras","Humacao","Expedido","Adjudicado","2015-02-11T00:00:00.000","PUS-CERT","254761.15589939","234504.708302529","No","Construccion de vivienda de una planta","Privado","Rural","NILSA LOPEZ ","(18.1443843841552, -65.9158325195312)","18.144384384155199","-65.915832519531193"
"2014-302395-PUS-13521","Permiso de Uso Completo","2015-01-27T20:17:00.000","2015","2015.01","361-073-364-09","Yauco","Carr. 128, 2.2, Yauco Gallery, Susúa Baja, Yauco","Ponce","Expedido","Adjudicado","2015-04-29T00:00:00.000","PUS-CONV","154844.175890699","222521.119538689","No","Oficina - Dra. Milady Irizarry","Privado","Urbano","MILADY IRIZARRY VAZQUEZ","(18.0363368988037, -66.8598022460937)","18.0363368988037","-66.859802246093693"
"2014-309636-PUS-13501","Permiso de Uso Completo","2015-01-23T00:31:00.000","2015","2015.01","112-064-575-29","Toa Alta","Carr-827, Km. 5.0, Bo. Piña Int, Piñas, Toa Alta","Central","Archivado","Adjudicado","2015-06-16T00:00:00.000","PUS-CONV","221757.88679516001","257673.086020849","No","GABRIEL VELILLA CHEVRES","Privado","Rural","GABRIEL VELILLA CHEVRES","(18.3542957305908, -66.2274703979492)","18.354295730590799","-66.227470397949205"
"2014-296957-PUS-13481","Permiso de Uso Certificado","2015-01-21T08:19:00.000","2015","2015.01","420-071-468-87","Guayama","Carr. Pr-54 Esq. Ave Arnaldo Bristol, 0, Machete, Barrio Pueblo, Guayama","Humacao","Expedido","Adjudicado","2015-01-21T00:00:00.000","PUS-CERT","233128.663950719","215749.49946814001","No","BMA of Guayama Inc, d/b/a FMC Guayama Dialysis","Privado","Urbano","CARLOS  RODRIGUEZ ","(17.9753742218017, -66.1205596923828)","17.975374221801701","-66.120559692382798"
"2015-313416-PUS-13461","Permiso de Uso Certificado","2015-01-20T15:19:00.000","2015","2015.01","112-058-381-03","Toa Alta","Carr. 829 , Km. 2.1 , Sector Rodriguez, Ortiz, Toa Alta","Central","Pre-aprobado","Pendiente",,"PUS-CERT","224154.40478107001","257962.31959247001","Si","TORONJAL SALON BILLAR","Privado","Rural","VIVIANA GONZALEZ RIVERA","(18.3568820953369, -66.2047958374023)","18.3568820953369","-66.204795837402301"
"2012-053307-PUS-13422","Permiso de Uso Certificado","2015-01-20T10:43:00.000","2015","2015.01","030-000-007-01","Arecibo","Pr-651, 2.0, Los Aires, Hato Abajo, Arecibo","Arecibo","Expedido","Adjudicado","2015-01-20T00:00:00.000","PUS-CERT","168637.230827919","268306.62464862899","Si","Urbanizacion Los Aires","Privado","Rural","JUAN GALANES ","(18.450246810913, -66.730239868164)","18.450246810913001","-66.730239868164006"
"2015-313816-PUS-13421","Permiso de Uso Certificado","2015-01-20T10:39:00.000","2015","2015.01","049-033-083-23","Quebradillas","Carr 113, 15.9, ., San Antonio, Quebradillas","Aguadilla","Expedido","Adjudicado","2015-01-20T00:00:00.000","PUS-CERT","148245.04087468001","265645.233741139","No","CHUTYS CAFE","Privado","Rural","JESÚS MALDONADO SÁNCHEZ ","(18.4258060455322, -66.9232177734375)","18.425806045532202","-66.9232177734375"
"2015-313579-PUS-13401","Permiso de Uso Certificado","2015-01-20T09:53:00.000","2015","2015.01","056-022-064-20","Manatí","Calle Padial Esq. Betances, Primera Planta / # 31, Pueblo, Barrio Pueblo, Manatí","Arecibo","Pre-aprobado","Pendiente",,"PUS-CERT","193800.72352045","265705.24529145","Si","EL CASTILLO ","Privado","Urbano","CYDMARIE CABEZA ROSARIO","(18.4269657135009, -66.4920120239257)","18.426965713500898","-66.492012023925696"
"2015-313724-PUS-13383","Permiso de Uso Certificado","2015-01-20T08:58:00.000","2015","2015.01","169-031-021-09","Naranjito","Calle Georgetti , Local # 52, Pueblo, Barrio Pueblo, Naranjito","Central","Expedido","Adjudicado","2015-01-20T00:00:00.000","PUS-CERT","220024.97550082","251731.14165417","No","OFICINA MEDICA Y CENTRO DE TERAPIA FISICA","Privado","Urbano","JOSE ARIAS ","(18.3006286621093, -66.2439270019531)","18.3006286621093","-66.243927001953097"
"2013-202080-PUS-13382","Permiso de Uso Certificado","2015-01-20T08:50:00.000","2015","2015.01","068-088-023-55","Aguada","Pr-115, 22.3 Interior, Sector Casualidad, Guayabo, Aguada","Aguadilla","Expedido","Adjudicado","2015-01-20T00:00:00.000","PUS-CERT","118444.90824724","260382.283773509","No","Residencia Diana M. Rodriguez & Jorge D. Roldan","Privado","Rural","DIANA RODRIGUEZ MORENO","(18.3773307800292, -67.2050704956054)","18.377330780029201","-67.205070495605398"
"2015-313722-PUS-13381","Permiso de Uso Certificado","2015-01-20T08:39:00.000","2015","2015.01","110-099-003-12","Corozal","Calle Bou, Unidad 7, Pueblo, Barrio Pueblo, Corozal","Central","Expedido","Adjudicado","2015-01-20T00:00:00.000","PUS-CERT","212020.414534229","256358.56974663","No","OFICINA MEDICA Y CENTRO DE TERAPIA FISICA","Privado","Urbano","JOSE ARIAS ","(18.3424949645996, -66.3196105957031)","18.342494964599599","-66.319610595703097"
"2015-313616-PUS-13361","Permiso de Uso Completo","2015-01-19T15:40:00.000","2015","2015.01","266-074-042-27","Adjuntas","Dr Barbosa, 20, Pueblo, Barrio Pueblo, Adjuntas","Ponce","Expedido","Adjudicado","2015-01-29T00:00:00.000","PUS-CONV","169186.02686290001","236428.870884459","No","FERNANDINI OPTICAL GALLERY,INC","Privado","Rural","HECTOR  ORTIZ FERNANDINI","(18.1622467041015, -66.7245635986328)","18.162246704101499","-66.724563598632798"
"2015-313296-PUS-13341","Permiso de Uso Completo","2015-01-19T13:45:00.000","2015","2015.01","034-051-452-20","Manatí","Manati Carr   8, 2.5, Tierras Nuevas, Tierras Nuevas Saliente, Manatí","Arecibo","Expedido","Adjudicado","2015-02-20T00:00:00.000","PUS-CONV","193197.56804879001","268067.99040354899","No","LABORATORIO TIERRAS NUEVAS,INC","Privado","Urbano","JUAN SOTO ","(18.4483089447021, -66.4977264404296)","18.448308944702099","-66.497726440429602"
"2014-302777-PUS-13321","Permiso de Uso Certificado","2015-01-19T09:48:00.000","2015","2015.01","361-051-126-03","Yauco","Camino Municipal Principal, Lote #4, Sector La Republica, Almácigo Bajo, Yauco","Ponce","Expedido","Adjudicado","2015-02-17T00:00:00.000","PUS-CERT","153378.16057489","223374.434506939","No","Residencia H/A/B Oscar Gutierrez","Privado","Rural","OSCAR GUTIERREZ OLIVERAS","(18.0440158843994, -66.873664855957)","18.0440158843994","-66.873664855957003"
"2015-313260-PUS-13301","Permiso de Uso Certificado","2015-01-19T07:48:00.000","2015","2015.01","016-194-007-07","Manatí","Carr648, Km.1.0, Sector Mar Chiquita, Tierras Nuevas Saliente, Manatí","Arecibo","Expedido","Adjudicado","2015-02-09T00:00:00.000","PUS-CERT",,,"No","William Nadal","Privado","Rural","WILLIAM NADAL NIEVES",,,
"2015-313377-PUS-13282","Permiso de Uso Certificado","2015-01-19T07:39:00.000","2015","2015.01","068-085-413-21","Aguada","115, 19.6, Guayabo, Guayabo, Aguada","Aguadilla","Expedido","Adjudicado","2015-01-23T00:00:00.000","PUS-CERT","116683.13453842","260504.78074977","No","Héctor Arroyo-Permiso de Uso","Privado","Urbano","HECTOR ARROYO ","(18.3783683776855, -67.2217483520507)","18.378368377685501","-67.221748352050696"
"2015-312756-PUS-13261","Permiso de Uso Certificado","2015-01-18T17:30:00.000","2015","2015.01","090-077-035-14","Río Grande","Calle Juan R. Gonzalez, 17-A, Pueblo Nuevo, Barrio Pueblo, Río Grande","Central","Pre-aprobado","Pendiente",,"PUS-CERT","263509.22257922002","260604.514215779","Si","PERMISO USO ESCUELA DE MUSICA DE RG","Privado","Urbano","RICHARD WILLIAMS ","(18.3799495697021, -65.8323516845703)","18.379949569702099","-65.832351684570298"
"2015-309978-PUS-13241","Permiso de Uso Certificado","2015-01-17T16:44:00.000","2015","2015.01","228-079-149-20","Naguabo","Carr. 950, Km. 0.2, Higuerillo, Peña Pobre, Naguabo","Humacao","Expedido","Adjudicado","2015-01-29T00:00:00.000","PUS-CERT","264551.04568796","243435.606037049","No","Vivienda Unifamiliar","Privado","Rural","WILLIAM RIVERA 00718","(18.2248020172119, -65.8230285644531)","18.2248020172119","-65.823028564453097"
"2015-313096-PUS-13221","Permiso de Uso Certificado","2015-01-17T07:26:00.000","2015","2015.01","377-087-002-29","Yabucoa","Pr 901, Km 5.6, El Negro, Camino Nuevo, Yabucoa","Humacao","Expedido","Adjudicado","2015-01-17T00:00:00.000","PUS-CERT","263605.905339349","222294.10554609","Si","Cambio de nombre Corp Costa Del Mar, Inc","Privado","Rural","JUAN LOPEZ MEDINA","(18.0338191986083, -65.8326263427734)","18.033819198608299","-65.832626342773395"
"2015-313196-PUS-13201","Permiso de Uso Certificado","2015-01-16T21:26:00.000","2015","2015.01","188-046-005-32","Utuado","Carr. Pr-123, Km. 56.8, Salto Arriba, Barrio Pueblo, Utuado","Arecibo","Expedido","Adjudicado","2015-01-20T00:00:00.000","PUS-CERT","169942.597899699","247741.96523095001","No","Restaurante Olán","Privado","Rural","MANUEL MENA BERDECÍA","(18.2644691467285, -66.7175750732421)","18.264469146728501","-66.717575073242102"
"2015-312116-PUS-13181","Permiso de Uso Certificado","2015-01-16T17:55:00.000","2015","2015.01","042-000-002-70","Loíza","Carretera Pr 187, Kilometro 5 Hectometro 4, Sector La Torre, Torrecilla Baja, Loíza","Central","Expedido","Adjudicado","2015-01-20T00:00:00.000","PUS-CERT","247975.90733032001","269088.22964352899","No","Rest con Venta de B/A/D con Recreacion Comercial","Privado","Rural","LUIS MIGUEL AGOSTO CLEMENTE ","(18.4570007324218, -65.9791412353515)","18.4570007324218","-65.979141235351506"
"2015-313176-PUS-13161","Permiso de Uso Certificado","2015-01-16T16:21:00.000","2015","2015.01","037-000-003-28","Dorado","Suite 1002 Carr. 696 Ave. José Efrón 602, K.M. 2.3, Paseo Del Plata, Higuillar, Dorado","Central","Expedido","Adjudicado","2015-01-19T00:00:00.000","PUS-CERT","215842.2895753","269074.11088192899","Si","Zurixx Oficina de Dorado","Privado","Rural","RUTH L. CARRERAS ","(18.4573516845703, -66.2833557128906)","18.457351684570298","-66.283355712890597"
"2014-309483-PUS-13141","Permiso de Uso Certificado","2015-01-16T14:11:00.000","2015","2015.01","437-006-019-23","Santa Isabel","Calle Luis Munoz Rivera, 37, Bo. Pueblo, Barrio Pueblo, Santa Isabel","Ponce","Expedido","Adjudicado","2015-01-16T00:00:00.000","PUS-CERT","203207.88219039","214591.11983136","Si","Farmacia Rey 16 - Santa Isabel","Privado","Urbano","JUAN REYNOSO ","(17.9651622772216, -66.4030456542968)","17.965162277221602","-66.403045654296804"
"2015-313076-PUS-13121","Permiso de Uso Certificado","2015-01-16T13:28:00.000","2015","2015.01","171-040-425-25","Aguas Buenas","Carr. 797, 0.3, Sector Avon, Jagüeyes, Aguas Buenas","Humacao","Expedido","Adjudicado","2015-01-16T00:00:00.000","PUS-CERT","238790.58934648","251689.620123439","No","RESTAURANTE CVBA AL DETAL Y CIGARRILLOS","Privado","Rural","ALEXIS CEDRES PAGAN","(18.2999954223632, -66.0664291381835)","18.2999954223632","-66.066429138183494"
"2015-313018-PUS-13101","Permiso de Uso Certificado","2015-01-16T12:54:00.000","2015","2015.01","209-073-001-08","Mayagüez","Museo Y Centro De Servicios Multiples, ., Carr. 354, Río Cañas Arriba, Mayagüez","Aguadilla","Expedido","Adjudicado","2015-01-16T00:00:00.000","PUS-CERT","135142.53396530001","243489.616997009","No","FESTIVAL DE TROVADORES ( KIOSKO)","Privado","Rural","MERCEDES MARTY ","(18.2252807617187, -67.046531677246)","18.2252807617187","-67.046531677245994"
"2014-278414-PUS-13081","Permiso de Uso Completo","2015-01-16T12:26:00.000","2015","2015.01","129-021-141-02","San Sebastián","Calle Ruiz Belvis, 0, Casco Urbano, Bahomamey, San Sebastián","Aguadilla","Expedido","Adjudicado","2015-02-19T00:00:00.000","PUS-CONV","140796.26469693001","255624.16042644001","No","Antiguo Cementerio Municipal","Público","Urbano","JAVIER JIMENEZ ","(18.3350753784179, -66.9934310913085)","18.335075378417901","-66.993431091308494"
"2015-310176-PUS-13062","Permiso de Uso Certificado","2015-01-16T11:04:00.000","2015","2015.01","278-007-108-47","San Lorenzo","Carr. 183 Ramal 916, 10.5, Cerro Gordo, Cerro Gordo, San Lorenzo","Humacao","Expedido","Adjudicado","2015-01-16T00:00:00.000","PUS-CERT","250173.53450805001","238815.42363812","No","1 KIOSCO EXHIBICIÓN DE AUTOS","Privado","Rural","RAFAEL ALEJANDRO ","(18.183443069458, -65.9590759277343)","18.183443069458001","-65.959075927734304"
"2015-312917-PUS-13061","Permiso de Uso Certificado","2015-01-16T11:01:00.000","2015","2015.01","397-093-514-33","Guayama","Calle Cristo Rey, Num. 248, Comunidad Olimpo, Caimital, Guayama","Humacao","Expedido","Adjudicado","2015-01-28T00:00:00.000","PUS-CERT","234189.13519825001","218531.270085839","No","RINCON DEPORTIVO","Privado","Rural","LUZ DONES RODRIGUEZ","(18.0004920959472, -66.1105041503906)","18.000492095947202","-66.110504150390597"
"2015-312796-PUS-13041","Permiso de Uso Certificado","2015-01-16T09:45:00.000","2015","2015.01","058-079-038-04","Vega Alta","Carr.Pr-2, Parcela 17, Sector Comunidad Rural Carmen, Espinosa, Vega Alta","Arecibo","Pre-aprobado","Pendiente",,"PUS-CERT","211829.23941285","264226.73219576001","Si","IXCHEL","Privado","Urbano","EDNALÍ MARRERO RODRIGUEZ","(18.4135837554931, -66.3213729858398)","18.4135837554931","-66.321372985839801"
"2015-312797-PUS-13021","Permiso de Uso Certificado","2015-01-16T09:27:00.000","2015","2015.01","075-000-007-30","Hatillo","Carr. 129, 13.6, ., Bayaney, Hatillo","Arecibo","Expedido","Adjudicado","2015-01-16T00:00:00.000","PUS-CERT","161497.698849729","260042.736866199","No","CAFETERIA ACEVEDO","Privado","Rural","EDGARDO ACEVEDO ","(18.3754692077636, -66.7976684570312)","18.375469207763601","-66.797668457031193"
"2013-198278-PUS-13004","Permiso de Uso Certificado","2015-01-16T08:16:00.000","2015","2015.01","125-068-226-01","Rincón","Pr-412 , Km. 7.3(Int.) , Jaguey, Jagüey, Rincón","Aguadilla","Expedido","Adjudicado","2015-01-20T00:00:00.000","PUS-CERT","118953.67729613","254295.83404305001","No","Residencia del Sr. Efrain Colombani","Privado","Rural","EFRAIN COLOMBANI ","(18.3223609924316, -67.2000198364257)","18.322360992431602","-67.200019836425696"
"2015-312777-PUS-13003","Permiso de Uso Certificado","2015-01-16T07:55:00.000","2015","2015.01","168-000-007-03","Corozal","Pr-803 , Km. 6.7(Int.) Lote #2, Palos Blancos, Palos Blancos, Corozal","Central","Expedido","Adjudicado","2015-01-20T00:00:00.000","PUS-CERT","214434.60471302","249602.83385135001","No","Residencia del Sr. Melvin Melendez","Privado","Rural","MELVIN MELENDEZ ","(18.2814445495605, -66.2968139648437)","18.281444549560501","-66.296813964843693"
"2014-245004-PUS-13002","Permiso de Uso Certificado","2015-01-16T07:07:00.000","2015","2015.01","096-005-423-12","Aguada","Pr-414, Km. 2.0(Int.) Lote #11, Guayabo, Guayabo, Aguada","Aguadilla","Expedido","Adjudicado","2015-01-20T00:00:00.000","PUS-CERT","116652.35866622","259696.69003405","No","RESDIENCIA DEL SR. OSVALDO RIVERA GONZALEZ","Privado","Rural","OSVALDO RIVERA GONZALEZ","(18.3710670471191, -67.2220077514648)","18.371067047119102","-67.222007751464801"
"2015-312776-PUS-13001","Permiso de Uso Certificado","2015-01-16T06:01:00.000","2015","2015.01","120-070-006-20","Luquillo","Carr. 940, Km. 43.8, Juan Martin, Juan Martín, Luquillo","Central","Expedido","Adjudicado","2015-01-16T00:00:00.000","PUS-CERT","278599.079194349","257485.06548629","Si","IGLESIA-ESCUELA UNIVERSAL DE JESUCRISTO","Privado","Urbano","ANGEL  SANCHEZ ","(18.3512649536132, -65.6896743774414)","18.3512649536132","-65.689674377441406"
"2015-312179-PUS-12981","Permiso de Uso Certificado","2015-01-15T18:12:00.000","2015","2015.01","039-094-352-09","Toa Baja","Ave Comerio, #1, Urb Industrial Levittown, Barrio Pueblo, Toa Baja","Central","Expedido","Adjudicado","2015-01-20T00:00:00.000","PUS-CERT","228301.81871026001","266967.79346973001","Si","Iron Fist ITF Young Brothers LLC","Privado","Rural","JOSEPH SOTO ","(18.43819338, -66.16542598)","18.438193380000001","-66.165425979999995"
"2015-312677-PUS-12961","Permiso de Uso Certificado","2015-01-15T17:38:00.000","2015","2015.01","368-000-004-28","Coamo","Carretera Numero 545, Km. 5.4, Solar Num. 3, Los Llanos, Coamo","Ponce","Expedido","Adjudicado","2015-01-20T00:00:00.000","PUS-CERT","203670.36549615001","223885.6911118","No","Arnaldo Alvarado","Privado","Rural","ARNALDO ALVARADO ","(18.0491371154785, -66.3986663818359)","18.049137115478501","-66.398666381835895"
"2015-312157-PUS-12921","Permiso de Uso Certificado","2015-01-15T13:33:00.000","2015","2015.01","407-000-006-01","Guánica","Carr Pr-116,  Km, 2.5, Ensenada, Ensenada, Guánica","Ponce","Expedido","Adjudicado","2015-01-15T00:00:00.000","PUS-CERT","147873.36834484001","215232.13953883","Si","Cambio Nombre Corporativo Guanica 1929","Privado","Rural","JUAN LOPEZ ","(17.970323562622, -66.9254531860351)","17.970323562621999","-66.925453186035099"
"2015-312436-PUS-12901","Permiso de Uso Certificado","2015-01-15T13:18:00.000","2015","2015.01","283-050-010-13","Hormigueros","Calle Julio Perez Irizarry , Núm. 1, Esq, Calle Mateo Fajardo, Barrio Pueblo, Hormigueros","Aguadilla","Expedido","Adjudicado","2015-01-15T00:00:00.000","PUS-CERT","126569.315542319","234067.670456939","No","TRAGUITOS BAR & GRILL","Privado","Urbano","ISRAEL  RIVERA  ","(18.1398773193359, -67.1272506713867)","18.139877319335898","-67.127250671386705"
"2014-307554-PUS-12881","Permiso de Uso Completo","2015-01-15T12:59:00.000","2015","2015.01","207-000-009-29","Mayagüez","Carretera 2, 259 N Recinto Mayaguez, Ave. Boulevard Alfonzo Valdes, Miradero, Mayagüez","Aguadilla","Archivado","Adjudicado","2015-01-20T00:00:00.000","PUS-CONV","124601.59952786","242882.77589292001","No","FACILIDADES DE TELECOMUNICACIONES, MAYAGUEZ RUM","Privado","Rural","JI SITES DEVELOPERS, LLC ","(18.2194519042968, -67.1461715698242)","18.2194519042968","-67.146171569824205"
"2015-312397-PUS-12861","Permiso de Uso Certificado","2015-01-15T12:36:00.000","2015","2015.01","069-024-212-30","Aguada","Carr 417 , 2.0, Sect. Malpaso, Carrizal, Aguada","Aguadilla","Expedido","Adjudicado","2015-01-15T00:00:00.000","PUS-CERT","122617.73750694","262505.52760843001","No","1 KIOSKO CON B.A.D AGROCENTRO KEKO","Privado","Rural","CARMEN AVILES ","(18.3966674804687, -67.1656646728515)","18.3966674804687","-67.165664672851506"
"2015-311756-PUS-12841","Permiso de Uso Certificado","2015-01-15T11:51:00.000","2015","2015.01","216-096-033-29","Jayuya","Calle Esteves, #99, Pueblo, Barrio Pueblo, Jayuya","Ponce","Expedido","Adjudicado","2015-01-15T00:00:00.000","PUS-CERT","183086.09154359001","242557.46054976","Si","Comercio General - Calle Esteves - Jayuya","Privado","Urbano","JOSE REYES ","(18.2177715301513, -66.5932388305664)","18.2177715301513","-66.593238830566406"
"2015-312256-PUS-12821","Permiso de Uso Certificado","2015-01-15T10:49:00.000","2015","2015.01","294-073-188-21","Villalba","Calle #2, A-10, Urb. Vista Alegre, Vacas, Villalba","Ponce","Expedido","Adjudicado","2015-01-20T00:00:00.000","PUS-CERT","194768.761591699","232951.82996030001","No","Construccion de Residencia - Jorge Maldonado","Privado","Rural","JORGE MALDONADO ","(18.131046295166, -66.4827651977539)","18.131046295166001","-66.482765197753906"
"2014-239312-PUS-12801","Permiso de Uso Certificado","2015-01-15T10:23:00.000","2015","2015.01","153-000-009-16","Arecibo","Carr. 637, Km. 0.6 Int., Sector Abra Fria, Miraflores, Arecibo","Arecibo","Expedido","Adjudicado","2015-01-20T00:00:00.000","PUS-CERT",,,"No","Residencia Xiomara Acevedo","Privado","Rural","XIOMARA ACEVEDO ",,,
"2015-312216-PUS-12781","Permiso de Uso Certificado","2015-01-15T09:37:00.000","2015","2015.01","310-000-010-95","San Germán","Carr. 362, 5.7, Cancha Bajo Techo Del Guama, Guamá, San Germán","Aguadilla","Expedido","Adjudicado","2015-01-15T00:00:00.000","PUS-CERT","139435.868059339","230094.9124383","No","  OCTAVISTAS NAVIDEÑAS ( KIOSKO CANCHA)","Privado","Rural","JACOBO ORTIZ ","(18.1043853759765, -67.0055465698242)","18.104385375976499","-67.005546569824205"
"2015-312196-PUS-12761","Permiso de Uso Certificado","2015-01-15T09:14:00.000","2015","2015.01","056-013-011-25","Manatí","Calle G- # 16, ., Urb. Flamboyan, Barrio Pueblo, Manatí","Arecibo","Expedido","Adjudicado","2015-01-15T00:00:00.000","PUS-CERT","194542.942668409","266250.709902759","No","TUBB.PR","Privado","Urbano","JESUS LOUBRIEL ","(18.4318943023681, -66.4849853515625)","18.4318943023681","-66.4849853515625"
"2012-049320-PUS-12741","Permiso de Uso Certificado","2015-01-15T09:08:00.000","2015","2015.01","140-000-006-89","Corozal","803, 15.2 Int., Los Batatos, Dos Bocas, Corozal","Central","Expedido","Adjudicado","2015-01-20T00:00:00.000","PUS-CERT","213118.79574674901","254255.78817556001","No","Joel Ocasio Vazquez","Privado","Rural","JOEL OCASIO VAZQUEZ","(18.3234920501708, -66.3092346191406)","18.323492050170799","-66.309234619140597"
"2014-300579-PUS-12724","Permiso de Uso Completo","2015-01-15T08:46:00.000","2015","2015.01","115-100-064-16","Trujillo Alto","Carr 175 , 11.0, -, Carraízo, Trujillo Alto","Central","Cancelado","Adjudicado","2015-02-20T00:00:00.000","PUS-CONV","245593.90026113001","256667.5316202","No","Taller de mecanica","Privado","Urbano","NEESTOR VARGAS ","(18.344835281372, -66.001968383789)","18.344835281371999","-66.001968383789006"
"2015-312177-PUS-12723","Permiso de Uso Certificado","2015-01-15T08:38:00.000","2015","2015.01","056-012-024-06","Manatí","# 44 Caribe, Pueblo, ., Barrio Pueblo, Manatí","Arecibo","Expedido","Adjudicado","2015-01-15T00:00:00.000","PUS-CERT","194091.60091645","265952.97205108003","No","EMPRESAS ROSELY","Privado","Rural","JUAN  RIOS  ","(18.4292030334472, -66.4892578125)","18.429203033447202","-66.4892578125"
"2013-136922-PUS-12722","Permiso de Uso Certificado","2015-01-15T08:36:00.000","2015","2015.01","368-010-328-41","Coamo","Pr-14, 29.2, San Ildenfonso, San Ildefonso, Coamo","Ponce","Expedido","Adjudicado","2015-01-20T00:00:00.000","PUS-CERT","205724.51739184","225031.792973209","No","Legalización de Ampliación de Residencia R. Colón","Privado","Urbano","RAFAEL COLÓN FLORES","(18.0594882965087, -66.3792648315429)","18.0594882965087","-66.379264831542898"
"2015-312176-PUS-12721","Permiso de Uso Certificado","2015-01-15T08:22:00.000","2015","2015.01","058-079-048-29","Vega Alta","Carr. 2, Km. 30.2, Pueblo, Espinosa, Vega Alta","Arecibo","Expedido","Adjudicado","2015-01-15T00:00:00.000","PUS-CERT","211542.0713211","264173.06047452003","No","DEJA QUE TE CUENTE BAR & GRILL","Privado","Rural","ANDRES HERNANDEZ ","(18.4130992889404, -66.3240890502929)","18.413099288940401","-66.324089050292898"
"2014-304555-PUS-12681","Permiso de Uso Certificado","2015-01-14T17:36:00.000","2015","2015.01","144-096-204-42","Trujillo Alto","Carr 175, Km 3.7, Bo. Carraizo, Carraízo, Trujillo Alto","Central","Expedido","Adjudicado","2015-01-20T00:00:00.000","PUS-CERT","243126.26602218","253100.52527826","No","Emerald Lake","Privado","Rural","ARLEANE MERHEB ","(18.3126602172851, -66.025390625)","18.312660217285099","-66.025390625"
"2012-074640-PUS-12662","Permiso de Uso Certificado","2015-01-14T16:09:00.000","2015","2015.01","150-055-085-39","Fajardo","Calle Rebollo, Esq Calle Victor Rios, Pueblo Oeste, Barrio Pueblo, Fajardo","Central","Expedido","Adjudicado","2015-02-12T00:00:00.000","PUS-CERT","282006.67935358","254456.10297035001","No","Head Start El Castillo","Público","Urbano","ENRIQUE SANTIAGO ","(18.3237724304199, -65.6575546264648)","18.323772430419901","-65.657554626464801"
"2015-311876-PUS-12641","Permiso de Uso Certificado","2015-01-14T15:01:00.000","2015","2015.01","095-028-085-26","Rincón","Predio De La Playa Domes , ., ., Puntas, Rincón","Aguadilla","Expedido","Adjudicado","2015-01-14T00:00:00.000","PUS-CERT","112246.165926799","259056.11545626001","No","4 KIOSKO CON B.A.D. Y COMIDA","Privado","Rural","LUIS  MANZANET ","(18.3651027679443, -67.263671875)","18.3651027679443","-67.263671875"
"2015-311856-PUS-12622","Permiso de Uso Certificado","2015-01-14T14:56:00.000","2015","2015.01","138-000-001-89","Morovis","Carr. 155, Km. 51.2, Torrecillas, Torrecillas, Morovis","Arecibo","Expedido","Adjudicado","2015-01-14T00:00:00.000","PUS-CERT",,,"No","FUNERARIA TORRECILLAS MEMORIAL","Privado","Rural","ARMY CRUZ ",,,
"2014-295360-PUS-12601","Permiso de Uso Certificado","2015-01-14T13:45:00.000","2015","2015.01","010-000-005-65","Hatillo","Carr. #2, 87.1, Coliseo Francisco Deida Méndez, Hatillo, Hatillo","Arecibo","Expedido","Adjudicado","2015-01-14T00:00:00.000","PUS-CERT","159448.4685438","271987.020996109","No","Un Kiosco con Venta Bebidas Alcohólicas Truck Show","Privado","Urbano","DIONISIO LORENZO HERNÁNDEZ ","(18.4833431243896, -66.8172988891601)","18.483343124389599","-66.817298889160099"
"2015-311797-PUS-12581","Permiso de Uso Certificado","2015-01-14T13:02:00.000","2015","2015.01","025-018-031-05","Isabela","Carr 475 Interior, 1.0 , ., Arenales Bajos, Isabela","Aguadilla","Expedido","Adjudicado","2015-01-14T00:00:00.000","PUS-CERT","138563.70699427","269781.55110384","No","VENTA DE PIEZAS NUEVAS PARA AUTOS (AUTO BODY)","Privado","Rural","ZAVIEL  QUIÑONES ","(18.4629192352294, -67.0149765014648)","18.4629192352294","-67.014976501464801"
"2014-229800-PUS-12564","Permiso de Uso Certificado","2015-01-14T12:45:00.000","2015","2015.01","137-000-007-01","Ciales","Carr. 149 Int. 145, ., Parque Eduardito Figueroa, Jaguas, Ciales","Arecibo","Expedido","Adjudicado","2015-01-14T00:00:00.000","PUS-CERT","194739.62071321","253339.52279352001","No","UN KIOSCO CON V.B.A. AL DETAL Y COMIDAS","Privado","Rural","AMERICO DELGADO ","(18.3152465820312, -66.4830932617187)","18.3152465820312","-66.483093261718693"
"2015-311777-PUS-12563","Permiso de Uso Certificado","2015-01-14T12:41:00.000","2015","2015.01","025-018-031-05","Isabela","Carr 475, 1.0, ., Arenales Bajos, Isabela","Aguadilla","Expedido","Adjudicado","2015-01-14T00:00:00.000","PUS-CERT","138563.70699427","269781.55110384","No","CENTRO DE ALINEAMIENTO Y BALANCE ","Privado","Rural","ZAVIEL  LOPEZ  ","(18.4629192352294, -67.0149765014648)","18.4629192352294","-67.014976501464801"
"2015-311678-PUS-12521","Permiso de Uso Certificado","2015-01-14T10:56:00.000","2015","2015.01","029-000-006-99","Hatillo","Carr. 130, Km. 4.9, Sector Lechuga , Naranjito, Hatillo","Arecibo","Expedido","Adjudicado","2015-01-14T00:00:00.000","PUS-CERT","160931.49850662","268346.05938922899","No","FARMACIA LECHUGA, LLC","Privado","Rural","BLANCA DELGADO ","(18.450475692749, -66.8031845092773)","18.450475692748999","-66.803184509277301"
"2014-297696-PUS-12508","Permiso de Uso Completo","2015-01-14T10:08:00.000","2015","2015.01","035-000-007-59","Vega Baja","Carr # 2 `, Km 42.2, Bo. Algarrobo, Algarrobo, Vega Baja","Arecibo","Expedido","Adjudicado","2015-03-12T00:00:00.000","PUS-CONV","201066.46043028001","267237.97268457001","No","DNA Auto Corp.","Privado","Rural","JAVIER ANDINO ","(18.4408206939697, -66.423240661621)","18.440820693969702","-66.423240661620994"
"2015-311630-PUS-12507","Permiso de Uso Certificado","2015-01-14T09:52:00.000","2015","2015.01","042-000-008-03","Loíza","Carretera 187, Km. 7.2, Piñones, Torrecilla Baja, Loíza","Central","Expedido","Adjudicado","2015-01-14T00:00:00.000","PUS-CERT","248882.68999231001","268417.81966367899","No","The Blue Lagoon","Privado","Urbano","LUIS  CLEMENTE RIVERA ","(18.4509220123291, -65.9705734252929)","18.450922012329102","-65.970573425292898"
"2013-155825-PUS-12506","Permiso de Uso Certificado","2015-01-14T09:38:00.000","2015","2015.01","402-068-065-09","Cabo Rojo","B, Solar  D-8, Extension El Combate, Boquerón, Cabo Rojo","Aguadilla","Pre-aprobado","Pendiente",,"PUS-CERT","118221.74794042","216097.698813839","Si","Residencia Arturo Fret Quiles","Privado","Rural","ARTURO FRET  ","(17.9772186279296, -67.2054214477539)","17.977218627929599","-67.205421447753906"
"2014-284006-PUS-12505","Permiso de Uso Completo","2015-01-14T09:21:00.000","2015","2015.01","087-000-007-75","Trujillo Alto","Periferial # 2, 0, Coop. Viviendas Ciudad Univers, Sabana Llana Sur, Trujillo Alto","Central","Archivado","Adjudicado","2015-01-14T00:00:00.000","PUS-CONV","242160.3968438","259369.336274","No","Cooperativa Viviendas Ciudad Universitaria","Privado","Urbano","WILLIAM SANTANA FONT","(18.3731861114501, -66.0401306152343)","18.373186111450099","-66.040130615234304"
"2015-311618-PUS-12504","Permiso de Uso Certificado","2015-01-14T08:55:00.000","2015","2015.01","417-073-055-07","Salinas","0 Santos P. Madero3, Salinas Pr, 0, Barrio Pueblo, Salinas","Humacao","Cancelado","Adjudicado","2015-02-20T00:00:00.000","PUS-CERT","214541.672491759","215702.96588135001","No","USO COMERCIAL AUTORIZADO CENTRO WICK","Privado","Rural","MILDRED ORTIZ ","(17.9751605987548, -66.296043395996)","17.975160598754801","-66.296043395995994"
"2014-300338-PUS-12502","Permiso de Uso Certificado","2015-01-14T08:40:00.000","2015","2015.01","223-099-099-51","Aguas Buenas","Carr.173, Km. 6.1 , Sector Las Corujas, Sumidero, Aguas Buenas","Humacao","Expedido","Adjudicado","2015-01-14T00:00:00.000","PUS-CERT","231593.90036485001","242712.458124039","Si","Francisco Mejias ","Privado","Rural","FRANCISCO MEJIAS ","(18.2190074920654, -66.1346359252929)","18.219007492065401","-66.134635925292898"
"2015-311616-PUS-12501","Permiso de Uso Certificado","2015-01-14T08:12:00.000","2015","2015.01","010-023-581-04","Camuy","Carr. #485, 1.8, ., Membrillo, Camuy","Arecibo","Expedido","Adjudicado","2015-01-14T00:00:00.000","PUS-CERT","154823.741603289","272776.87305498001","No","LA TERRAZA VILLA BRUSI","Privado","Rural","IRIS MORALES CAJIGAS ","(18.4903869628906, -66.8611068725585)","18.4903869628906","-66.861106872558494"
"2015-311476-PUS-12481","Permiso de Uso Certificado","2015-01-13T17:52:00.000","2015","2015.01","040-049-733-18","San Juan","1095 Wilson Ave., 1, Puerta Del Condado, Santurce, San Juan","Central","Expedido","Adjudicado","2015-01-14T00:00:00.000","PUS-CERT","237949.23856647901","268711.30640195002","Si","ASC PHARMACY INC - CONDADO","Privado","Rural","ASCANIO SERNA ","(18.4537963867187, -66.0740737915039)","18.4537963867187","-66.074073791503906"
"2012-072724-PUS-12461","Permiso de Uso Certificado","2015-01-13T16:22:00.000","2015","2015.01","351-039-237-06","Yabucoa","Carr182, Km.9.6  Interior, Sector Los Rodriguez, Guayabota, Yabucoa","Humacao","Expedido","Adjudicado","2015-01-17T00:00:00.000","PUS-CERT","251833.27846233","227727.66892769001","No","Const.Residencia en H.A.B. sobre columnas","Privado","Rural","NOELIA RODRIGUEZ GARCIA","(18.0832271575927, -65.9436721801757)","18.083227157592699","-65.943672180175696"
"2012-037366-PUS-12441","Permiso de Uso Certificado","2015-01-13T15:16:00.000","2015","2015.01","352-000-002-69","Yabucoa","Carr. 902 , Km 3.4 Interior, Campo Alegre, Jácana, Yabucoa","Humacao","Cancelado","Adjudicado","2015-02-13T00:00:00.000","PUS-CERT","255271.74593800001","227777.22020693001","No","CONSTRUCCION RESIDENCIA EN H A B","Privado","Rural","JOSE MEDINA ","(18.083589553833, -65.9111862182617)","18.083589553833001","-65.911186218261705"
"2013-199741-PUS-12421","Permiso de Uso Certificado","2015-01-13T14:43:00.000","2015","2015.01",,,,"A - To Handle","Expedido","Adjudicado","2015-02-03T00:00:00.000","PUS-CERT",,,"No",,"Privado","Urbano","  ",,,
"2015-311357-PUS-12401","Permiso de Uso Certificado","2015-01-13T14:35:00.000","2015","2015.01","154-088-042-06","Añasco","Plaza Publica Jose Adolfo Pesante, ., ., Barrio Pueblo, Añasco","Aguadilla","Expedido","Adjudicado","2015-01-13T00:00:00.000","PUS-CERT","125172.26085592","249862.771271259","No","FIESTAS PATRONALES DE AÑASCO (KIOSKO)","Privado","Urbano","HERIBERTO GONZALEZ ","(18.2825355529785, -67.1410293579101)","18.282535552978501","-67.141029357910099"
"2014-307656-PUS-12381","Permiso de Uso Certificado","2015-01-13T14:27:00.000","2015","2015.01","081-000-007-30","Vega Baja","Carr. Pr155, Km. 58.4, Sector Pugnado Adentro, Pugnado Adentro, Vega Baja","Arecibo","Expedido","Adjudicado","2015-01-13T00:00:00.000","PUS-CERT","201172.5436068","261043.33219155","Si","Salon de Belleza (Noemi Morales)","Privado","Rural","NOEMI MORALES FUENTES","(18.3848552703857, -66.4222335815429)","18.3848552703857","-66.422233581542898"
"2015-311336-PUS-12361","Permiso de Uso Certificado","2015-01-13T14:03:00.000","2015","2015.01","154-088-042-06","Añasco","Calle Plaza Pedro Albizu Campo, ., ., Barrio Pueblo, Añasco","Aguadilla","Expedido","Adjudicado","2015-01-13T00:00:00.000","PUS-CERT","125172.26085592","249862.771271259","No","FIESTA PATRONALES DE AÑASCO ( KIOSKO)","Privado","Urbano","HECTOR BORGES ","(18.2825355529785, -67.1410293579101)","18.282535552978501","-67.141029357910099"
"2015-311317-PUS-12341","Permiso de Uso Certificado","2015-01-13T13:36:00.000","2015","2015.01","154-088-042-06","Añasco","Calle Pedro Albizu Campos, Esq. San Antonio, Plaza Recreo, Barrio Pueblo, Añasco","Aguadilla","Expedido","Adjudicado","2015-01-13T00:00:00.000","PUS-CERT","125172.26085592","249862.771271259","No","4 KIOSKOS BEBIDAS ALCS-FIESTAS PATRONALES AÑASCO","Privado","Urbano","FRANCISCO ECHEVARRIA ","(18.2825355529785, -67.1410293579101)","18.282535552978501","-67.141029357910099"
"2015-311296-PUS-12321","Permiso de Uso Certificado","2015-01-13T13:17:00.000","2015","2015.01","154-088-042-06","Añasco","Calle Pedro Albizu Campos, Esq. San Antonio, Plaza Recreo, Barrio Pueblo, Añasco","Aguadilla","Expedido","Adjudicado","2015-01-13T00:00:00.000","PUS-CERT","125172.26085592","249862.771271259","No","1 KIOSKO BEBIDAS ACLS. FIESTAS PATRONALES AÑASCO","Privado","Urbano","JULIO TORRES ","(18.2825355529785, -67.1410293579101)","18.282535552978501","-67.141029357910099"
"2015-311256-PUS-12301","Permiso de Uso Certificado","2015-01-13T12:59:00.000","2015","2015.01","154-088-042-06","Añasco","Calle Pedro Albizu Campos, Esq. San Antonio, Plaza Recreo, Barrio Pueblo, Añasco","Aguadilla","Expedido","Adjudicado","2015-01-13T00:00:00.000","PUS-CERT","125172.26085592","249862.771271259","No","MAQUINAS DE ENTRETENIMIENTO FIESTAS PATRONALES DE ","Privado","Urbano","CARLOS RIOS ","(18.2825355529785, -67.1410293579101)","18.282535552978501","-67.141029357910099"
"2015-311139-PUS-12281","Permiso de Uso Certificado","2015-01-13T11:02:00.000","2015","2015.01","390-096-004-07","Juana Díaz","1, 117.6, ., Capitanejo, Juana Díaz","Ponce","Expedido","Adjudicado","2015-01-13T00:00:00.000","PUS-CERT","190104.99834152","218266.037031999","No","Albinia Inc.","Privado","Rural","ALEXIS SANTIAGO ","(17.9983444213867, -66.5267639160156)","17.998344421386701","-66.526763916015597"
"2014-243377-PUS-12261","Permiso de Uso Certificado","2015-01-13T10:31:00.000","2015","2015.01","129-050-001-48","San Sebastián","Carr 448, Km 0.2, Eneas, Eneas, San Sebastián","Aguadilla","Expedido","Adjudicado","2015-01-26T00:00:00.000","PUS-CERT","146132.82928149001","254792.22679337001","No","Ivan Rosa Caban","Privado","Rural","IVAN ROSA CABAN ","(18.3277015686035, -66.9429244995117)","18.327701568603501","-66.942924499511705"
"2015-309696-PUS-12241","Permiso de Uso Completo","2015-01-13T10:14:00.000","2015","2015.01","186-054-001-20","Lares","Carr 129, Km 12.7 Int, Sector La America, Buenos Aires, Lares","Arecibo","Expedido","Adjudicado","2015-01-28T00:00:00.000","PUS-CONV","155502.152475729","247534.00892098001","No","GOMERA","Privado","Rural","WILLIAM LOPEZ ","(18.2623386383056, -66.854133605957)","18.2623386383056","-66.854133605957003"
"2014-306433-PUS-12221","Permiso de Uso Certificado","2015-01-13T09:32:00.000","2015","2015.01","157-028-421-01","San Sebastián","Carr 435, Km 3.2, Perchas I, Perchas I, San Sebastián","Aguadilla","Expedido","Adjudicado","2015-01-13T00:00:00.000","PUS-CERT","145012.3174158","251921.894039009","No","Angel D. Santiago Crespo","Privado","Rural","ANGEL SANTIAGO CRESPO","(18.3017387390136, -66.9534454345703)","18.301738739013601","-66.953445434570298"
"2015-311106-PUS-12205","Permiso de Uso Certificado","2015-01-13T09:09:00.000","2015","2015.01","154-088-042-06","Añasco","Plaza Publico Pedro Albizu Campo , ., ., Barrio Pueblo, Añasco","Aguadilla","Expedido","Adjudicado","2015-01-13T00:00:00.000","PUS-CERT","125172.26085592","249862.771271259","No","FIESTAS PATRONALES DE AÑASCO (KIOSKO)","Privado","Urbano","JOSE RIVERA ","(18.2825355529785, -67.1410293579101)","18.282535552978501","-67.141029357910099"
"2015-311104-PUS-12204","Permiso de Uso Certificado","2015-01-13T09:03:00.000","2015","2015.01","082-070-178-56","Vega Alta","Pr-678, Km. 3.9(Int.) Lote #3, Pampano, Espinosa, Vega Alta","Arecibo","Expedido","Adjudicado","2015-01-13T00:00:00.000","PUS-CERT","212267.87178275001","261005.30516699","No","Residencia de la Sra. Joandra A. Ortiz","Privado","Rural","JOANDRA ORTIZ RODRIGUEZ","(18.3844757080078, -66.3172378540039)","18.384475708007798","-66.317237854003906"
"2011-694289-PUS-12203","Permiso de Uso Certificado","2015-01-13T08:30:00.000","2015","2015.01","099-000-009-25","San Sebastián","Carr   Pr 125, Km. 19.1, Int., Guatemala, Guatemala, San Sebastián","Aguadilla","Expedido","Adjudicado","2015-01-13T00:00:00.000","PUS-CERT","138979.788211359","256807.730746279","No","San Antonio de la Plata - 3","Privado","Rural","RUBÉN RAMIREZ FONT","(18.345718383789, -67.0106506347656)","18.345718383788999","-67.010650634765597"
"2015-311100-PUS-12202","Permiso de Uso Certificado","2015-01-13T07:51:00.000","2015","2015.01","154-098-043-01","Añasco","Plaza Publica Jose Adolfo Pesante, ., ., Barrio Pueblo, Añasco","Aguadilla","Expedido","Adjudicado","2015-01-13T00:00:00.000","PUS-CERT","125249.41802543","249831.38203588","No","FIESTAS PATRONALES DE AÑASCO(KIOSKO)","Privado","Urbano","GLADYS MONTES DE OCA","(18.2822532653808, -67.1402969360351)","18.282253265380799","-67.140296936035099"
"2015-311097-PUS-12201","Permiso de Uso Certificado","2015-01-13T07:41:00.000","2015","2015.01","011-077-409-64","Hatillo","Carr. Pr-493, 0.9, ., Carrizales, Hatillo","Arecibo","Expedido","Adjudicado","2015-01-13T00:00:00.000","PUS-CERT","164100.3543417","271162.09109582001","No","Gasolinera con Mini Market/Bebidas Alc. Selladas","Privado","Urbano","EDWIN PERAZA ","(18.4759731292724, -66.7732391357421)","18.475973129272401","-66.773239135742102"
"2015-311076-PUS-12181","Permiso de Uso Completo","2015-01-13T01:57:00.000","2015","2015.01","070-076-003-09","Moca","111, 7.1, Voladoras, Voladoras, Moca","Aguadilla","Expedido","Adjudicado","2015-02-13T00:00:00.000","PUS-CONV","130385.29542654","260721.53417345","No","Cafeteria con Bebidas Alcoholicas y Kareoke","Privado","Rural","LUIS SOTO ACEVEDO","(18.3808155059814, -67.0920944213867)","18.380815505981399","-67.092094421386705"
"2014-307567-PUS-12162","Permiso de Uso Completo","2015-01-12T17:24:00.000","2015","2015.01","121-000-005-88","Fajardo","Carr. 987, 6.0, Sector Las Croabas, Cabezas, Fajardo","Central","Expedido","Adjudicado","2015-01-16T00:00:00.000","PUS-CONV","284978.70122001","259042.44359166001","No","THE OCEAN CLUB & SEVEN SEAS","Privado","Urbano","MICHAEL SCARFIA ","(18.3650913238525, -65.6292495727539)","18.3650913238525","-65.629249572753906"
"2014-307567-PUS-12161","Permiso de Uso Completo","2015-01-12T17:05:00.000","2015","2015.01","121-000-005-88","Fajardo","Carr. 987, 6.0, Sector Las Croabas, Cabezas, Fajardo","Central","Expedido","Adjudicado","2015-01-16T00:00:00.000","PUS-CONV","284978.70122001","259042.44359166001","No","THE OCEAN CLUB & SEVEN SEAS","Privado","Urbano","MICHAEL SCARFIA ","(18.3650913238525, -65.6292495727539)","18.3650913238525","-65.629249572753906"
"2015-310616-PUS-12141","Permiso de Uso Certificado","2015-01-12T13:49:00.000","2015","2015.01","141-000-006-37","Naranjito","Carr 825, Km. 3.7, Achiote, Achiote, Naranjito","Central","Expedido","Adjudicado","2015-01-12T00:00:00.000","PUS-CERT","220306.094417849","253724.60167433001","Si","COLMADO VBA SELLADAS, ARTI FERRETERIAYPIEZASAUTOS","Privado","Rural","ELIEZER FIGUEROA AYALA","(18.3186359405517, -66.2412490844726)","18.318635940551701","-66.241249084472599"
"2015-310756-PUS-12121","Permiso de Uso Certificado","2015-01-12T12:45:00.000","2015","2015.01","063-074-305-22","San Juan","Ave. Barbosa, 597, Urb. Valencia, Universidad, San Juan","Central","Cancelado","Adjudicado","2015-02-13T00:00:00.000","PUS-CERT","241277.26318564001","264257.78847184899","No","RESTAURANTE OLE OLE","Privado","Urbano","JOSE MARCANO FIGUEROA","(18.4134979248046, -66.0426559448242)","18.413497924804599","-66.042655944824205"
"2015-310396-PUS-12101","Permiso de Uso Certificado","2015-01-12T12:19:00.000","2015","2015.01","070-034-020-38","Moca","Carr. 111, 5.1, ., Barrio Pueblo, Moca","Aguadilla","Expedido","Adjudicado","2015-01-13T00:00:00.000","PUS-CERT","129060.553022919","262039.868115499","Si","Residencia en Segundo Nivel","Privado","Urbano","RENE ACEVEDO ","(18.3926830291748, -67.1046752929687)","18.392683029174801","-67.104675292968693"
"2014-252547-PUS-12082","Permiso de Uso Certificado","2015-01-12T09:03:00.000","2015","2015.01","096-032-099-39","Rincón","Pr-115, Km. 16.3(Int.) Lote #1, Sector Mingo Mela, Río Grande, Rincón","Aguadilla","Expedido","Adjudicado","2015-01-13T00:00:00.000","PUS-CERT","114656.55334317","258591.08656637001","No","Residencia  de la Sra. Grisel Valle Bonet","Privado","Rural","GRISEL VALLE  BONET","(18.3610000610351, -67.2408447265625)","18.361000061035099","-67.2408447265625"
"2015-310316-PUS-12081","Permiso de Uso Certificado","2015-01-12T09:01:00.000","2015","2015.01","036-094-032-23","Vega Alta","Carr.2 , Parcela 121-A / Km.34.1, Santa Rosa, Sabana, Vega Alta","Arecibo","Pre-aprobado","Pendiente",,"PUS-CERT","208684.18981839","266791.17595020001","Si","Apartamento Sr.Alejo Rodriguez","Privado","Rural","ALEJO RODRIGUEZ SANTIAGO","(18.436767578125, -66.3511276245117)","18.436767578125","-66.351127624511705"
"2015-310316-PUS-12062","Permiso de Uso Certificado","2015-01-12T08:57:00.000","2015","2015.01","036-094-032-23","Vega Alta","Carr.2 , Parcela 121-A / Km.34.1, Santa Rosa, Sabana, Vega Alta","Arecibo","Pre-aprobado","Pendiente",,"PUS-CERT","208684.18981839","266791.17595020001","Si","Apartamento Sr.Alejo Rodriguez","Privado","Rural","ALEJO RODRIGUEZ SANTIAGO","(18.436767578125, -66.3511276245117)","18.436767578125","-66.351127624511705"
"2014-240942-PUS-12041","Permiso de Uso Certificado","2015-01-12T08:37:00.000","2015","2015.01","111-000-002-43","Corozal","Pr-159, Km. 17.9(Int.), Sector Mavilla, Abras, Corozal","Central","Expedido","Adjudicado","2015-01-13T00:00:00.000","PUS-CERT","214466.82195797001","258052.984732999","No","Residencia  de la Sra. Jennifer Guzman Morales","Privado","Rural","JENNIFER GUZMAN  MORALES","(18.3577899932861, -66.2964553833007)","18.357789993286101","-66.296455383300696"
"2014-278712-PUS-12021","Permiso de Uso Certificado","2015-01-11T14:33:00.000","2015","2015.01","188-049-056-08","Utuado","Calle Catalina Figuera, # 26, Bubao, Viví Abajo, Utuado","Arecibo","Expedido","Adjudicado","2015-01-13T00:00:00.000","PUS-CERT","172242.168125639","247796.94451413001","No","Mary  J. Torres Ramirez","Privado","Urbano","MARY TORRES ","(18.2649974822998, -66.6958312988281)","18.264997482299801","-66.695831298828097"
"2014-301857-PUS-12001","Permiso de Uso Certificado","2015-01-09T20:09:00.000","2015","2015.01","030-015-335-25","Arecibo","Carr 10, Km 85.7, Galeria Pacifico, Barrio Pueblo, Arecibo","Arecibo","Expedido","Adjudicado","2015-01-30T00:00:00.000","PUS-CERT","169524.32399049","269734.016261229","No","Construcción de Subway","Privado","Urbano","R2BUSINESS INC ","(18.4631557464599, -66.7218627929687)","18.463155746459901","-66.721862792968693"
"2015-310437-PUS-11961","Permiso de Uso Certificado","2015-01-09T14:03:00.000","2015","2015.01","070-008-002-35","Moca","Carr 444, 4.1, ., Cuchillas, Moca","Aguadilla","Expedido","Adjudicado","2015-01-09T00:00:00.000","PUS-CERT","132233.164912559","263196.92452643003","No","UN KIOSKO CON B.A.D. ","Privado","Urbano","JULIAN CARRERO ","(18.4032402038574, -67.0746917724609)","18.403240203857401","-67.074691772460895"
"2015-310398-PUS-11942","Permiso de Uso Certificado","2015-01-09T13:46:00.000","2015","2015.01","050-023-113-09","Camuy","Carr. #486, 5.3, ., Abra Honda, Camuy","Arecibo","Expedido","Adjudicado","2015-01-09T00:00:00.000","PUS-CERT","155295.17366892","265698.407554559","No","Gasolinera Abra Honda","Privado","Rural","JOSÉ RUÍZ JUSTINIANO ","(18.4264450073242, -66.8564834594726)","18.426445007324201","-66.856483459472599"
"2015-310139-PUS-11941","Permiso de Uso Certificado","2015-01-09T13:40:00.000","2015","2015.01","414-001-061-01","Juana Díaz","Carretera Pr-1 Int. Pr-149, Km 0, Pastillo, Cintrona, Juana Díaz","Ponce","Expedido","Adjudicado","2015-01-09T00:00:00.000","PUS-CERT","193322.674056599","218038.40863359001","No","Cambio Dueño Ferreteria Pastillo Juana Diaz","Privado","Rural","HERNAN ORTIZ ","(17.9962997436523, -66.4963836669921)","17.996299743652301","-66.496383666992102"
"2015-310356-PUS-11921","Permiso de Uso Certificado","2015-01-09T12:48:00.000","2015","2015.01","099-090-001-75","San Sebastián","Carr. 111 Ave. Arcadio Estrada, Km. 17.9, ., Guatemala, San Sebastián","Aguadilla","Expedido","Adjudicado","2015-01-09T00:00:00.000","PUS-CERT","140132.166266999","256833.55807224","No","Festival Novilla(Dos kioskos con Bebidas Detal)","Privado","Rural","JOHN A. SEGARRA ","(18.345983505249, -66.9997482299804)","18.345983505248999","-66.999748229980398"
"2015-310337-PUS-11901","Permiso de Uso Certificado","2015-01-09T12:23:00.000","2015","2015.01","100-091-133-21","San Sebastián","Carr. 111 Frente A Walgreens, Ubicación #6, ., Bahomamey, San Sebastián","Aguadilla","Expedido","Adjudicado","2015-01-09T00:00:00.000","PUS-CERT","140371.46989691001","256542.50935271001","No","Festival de la Novilla (Dos kioskos)","Privado","Rural","ALFREDO TORRES PELLOT ","(18.3433609008789, -66.9974746704101)","18.343360900878899","-66.997474670410099"
"2014-229977-PUS-11881","Permiso de Uso Completo","2015-01-09T12:00:00.000","2015","2015.01","190-000-005-23","Jayuya","Pr-141, 13.7, Sector Los Ajos, Mameyes Arriba, Jayuya","Ponce","Cancelado","Adjudicado","2015-02-09T00:00:00.000","PUS-CONV","185569.87446518001","248270.26061954","No","Iglesia Defensores de la Fe Oasis de Bendicion","Privado","Rural","REVDO. RAFAEL CORREA ","(18.2694053649902, -66.5698013305664)","18.269405364990199","-66.569801330566406"
"2015-310236-PUS-11861","Permiso de Uso Certificado","2015-01-09T11:21:00.000","2015","2015.01","025-018-285-51","Isabela","Carr. Pr-4475, Km. 0.5, Carretera Municipal, Arenales Bajos, Isabela","Aguadilla","Cancelado","Adjudicado","2015-02-09T00:00:00.000","PUS-CERT","138340.26687014001","269693.84146635002","No","Edificio de Apartamentos ","Privado","Rural","ROBERTO LOPEZ SOTO","(18.4621219635009, -67.01708984375)","18.462121963500898","-67.01708984375"
"2015-310256-PUS-11841","Permiso de Uso Certificado","2015-01-09T10:40:00.000","2015","2015.01","071-000-006-61","Moca","Carr 125, 10.3, Sector Lassalle, Capá, Moca","Aguadilla","Expedido","Adjudicado","2015-01-09T00:00:00.000","PUS-CERT","134229.33684043001","260331.59103348001","No","COLMADO CON BEBIDAS ALCOHOLICAS SELLADAS","Privado","Urbano","LUIS  TORRES BOSQUES ","(18.3774147033691, -67.0557098388671)","18.377414703369102","-67.055709838867102"
"2015-310217-PUS-11821","Permiso de Uso Certificado","2015-01-09T10:21:00.000","2015","2015.01","233-058-345-01","Mayagüez","Casino De Mayaguez, ., ., Barrio Pueblo, Mayagüez","Aguadilla","Expedido","Adjudicado","2015-01-09T00:00:00.000","PUS-CERT","125403.55382977","240795.227948969","No","SORORIDAD ETA GAMMA DELTA (CANTINA)","Privado","Urbano","SORORIDAD ETA GAMMA DELTA ","(18.2006206512451, -67.1385116577148)","18.200620651245099","-67.138511657714801"
"2015-310176-PUS-11801","Permiso de Uso Certificado","2015-01-09T09:33:00.000","2015","2015.01","278-007-108-47","San Lorenzo","Carr. 183 Ramal 916, 10.5, Cerro Gordo, Cerro Gordo, San Lorenzo","Humacao","Expedido","Adjudicado","2015-01-09T00:00:00.000","PUS-CERT","250173.53450805001","238815.42363812","No","1 KIOSCO EXHIBICIÓN DE AUTOS","Privado","Rural","RAFAEL ALEJANDRO ","(18.183443069458, -65.9590759277343)","18.183443069458001","-65.959075927734304"
"2014-251247-PUS-11784","Permiso de Uso Certificado","2015-01-09T08:31:00.000","2015","2015.01","027-045-416-96","Quebradillas","Calle Arca De Noe, Carr. 481, Km. 1.0 Int, Calle Municipal, Cocos, Quebradillas","Aguadilla","Expedido","Adjudicado","2015-01-09T00:00:00.000","PUS-CERT","149633.827625579","268548.54968221002","No","Permiso de Juan Mercado Ruiz","Privado","Rural","JUAN  MERCADO  RUIZ","(18.452070236206, -66.9101409912109)","18.452070236206001","-66.910140991210895"
"2015-310138-PUS-11783","Permiso de Uso Completo","2015-01-09T08:14:00.000","2015","2015.01","161-063-245-47","Utuado","Calle #3 A. Garcia, 4.2, Cayuco, Caguana, Utuado","Arecibo","Expedido","Adjudicado","2015-01-21T00:00:00.000","PUS-CONV","167923.63249407001","250748.57911376","No","VIVIENDA","Privado","Rural","ANTONIO RAMOS ","(18.2916049957275, -66.736717224121)","18.2916049957275","-66.736717224120994"
"2014-300055-PUS-11782","Permiso de Uso Certificado","2015-01-09T07:59:00.000","2015","2015.01","219-016-078-15","Orocovis","Carr. 157, Km 23.3 Int, Sector Sana Muertos, Barros, Orocovis","Ponce","Expedido","Adjudicado","2015-01-09T00:00:00.000","PUS-CERT","203056.14651118001","245205.27425583001","No","Res. Sr. Emiliano Rodriguez","Privado","Rural","EMILIANO RODRIGUEZ ","(18.2417602539062, -66.4044342041015)","18.2417602539062","-66.404434204101506"
"2014-288445-PUS-11761","Permiso de Uso Certificado","2015-01-08T21:28:00.000","2015","2015.01","219-000-002-56","Orocovis","Carr. #-567, Km.-0.8, Sector Vaqueria, Barros, Orocovis","Ponce","Expedido","Adjudicado","2015-01-09T00:00:00.000","PUS-CERT","201942.77787501001","245867.831220639","No","Residencia Alba N. Rivera","Privado","Rural","ALBA RIVERA ","(18.2477474212646, -66.4149627685546)","18.247747421264599","-66.414962768554602"
"2015-310057-PUS-11742","Permiso de Uso Certificado","2015-01-08T15:50:00.000","2015","2015.01","297-048-059-03","Aibonito","Calle Ramon Flores, #54 Local A La Derecha, Pueblo, Barrio Pueblo, Aibonito","Ponce","Expedido","Adjudicado","2015-01-08T00:00:00.000","PUS-CERT","217668.96549688","233966.40581549","Si","Iglesia Cristiana Cuidad Fuerte Aibonito ","Privado","Urbano","AIDA FUENTES ","(18.1401462554931, -66.2663650512695)","18.1401462554931","-66.266365051269503"
"2015-310116-PUS-11741","Permiso de Uso Certificado","2015-01-08T15:04:00.000","2015","2015.01","030-051-482-12","Arecibo","Carr.#129, Int. 492, ., ., Hato Abajo, Arecibo","Arecibo","Expedido","Adjudicado","2015-01-08T00:00:00.000","PUS-CERT","166660.214405579","268342.03167057002","No","Expreso Taxes ","Privado","Rural","SHADAYLEEN RODRÍGUEZ SOTO ","(18.4505367279052, -66.7489547729492)","18.450536727905199","-66.748954772949205"
"2015-310081-PUS-11722","Permiso de Uso Certificado","2015-01-08T13:48:00.000","2015","2015.01","012-094-011-07","Arecibo","Ave. Rotarios, Edificio 540, Local # 1-A, ., Barrio Pueblo, Arecibo","Arecibo","Expedido","Adjudicado","2015-01-12T00:00:00.000","PUS-CERT","169203.30419282001","270432.10555127001","Si","JD.AGRIMENSORES PSC","Privado","Urbano","JOSE D. RUIZ DEL VALLE ","(18.4694576263427, -66.7249069213867)","18.469457626342699","-66.724906921386705"
"2015-310097-PUS-11721","Permiso de Uso Certificado","2015-01-08T13:38:00.000","2015","2015.01","030-002-438-02","Arecibo","Calle 15, X-2, Urb. Villa Los Santos , Hato Abajo, Arecibo","Arecibo","Expedido","Adjudicado","2015-01-08T00:00:00.000","PUS-CERT","167748.64632319001","270005.39565512002","No","VICTORIA BOUTIQUE","Privado","Rural","KAREN LEBRON ","(18.4655818939208, -66.7386779785156)","18.465581893920799","-66.738677978515597"
"2015-310092-PUS-11709","Permiso de Uso Certificado","2015-01-08T12:33:00.000","2015","2015.01","131-025-073-01","Lares","Carr. 454, Km. 4.3, Las Campanas, Callejones, Lares","Arecibo","Expedido","Adjudicado","2015-01-08T00:00:00.000","PUS-CERT","156044.019110519","255525.87499539001","No","COLMADO LAS CAMPANAS","Privado","Rural","JAIME VELEZ ","(18.3345546722412, -66.8491744995117)","18.3345546722412","-66.849174499511705"
"2015-310090-PUS-11708","Permiso de Uso Certificado","2015-01-08T12:05:00.000","2015","2015.01","045-093-354-02","Aguada","Carr. 442, Km. 2.5, ., Espinar, Aguada","Aguadilla","Expedido","Adjudicado","2015-01-08T00:00:00.000","PUS-CERT","122081.1119607","263664.71485445899","No","Barra/Cafetería Beb. Alcoh. Detal/ 5 Máq. Entret.","Privado","Rural","RICARDO E. GONZÁLEZ ","(18.4071216583251, -67.1707916259765)","18.407121658325099","-67.170791625976506"
"2015-310088-PUS-11707","Permiso de Uso Certificado","2015-01-08T11:40:00.000","2015","2015.01","154-035-138-11","Añasco","Carr. 402, Km. 3.9, ., Caracol, Añasco","Aguadilla","Expedido","Adjudicado","2015-01-08T00:00:00.000","PUS-CERT","123174.34900512001","251697.913124399","No","Pand/Repos/Colmado/Cafet/Beb. Alch. Detal/2 máq. ","Privado","Rural","JOSÉ M.  NIEVES NIEVES ","(18.2990436553955, -67.1599960327148)","18.299043655395501","-67.159996032714801"
"2015-310086-PUS-11706","Permiso de Uso Certificado","2015-01-08T11:09:00.000","2015","2015.01","100-082-667-04","San Sebastián","Predio Est. Coliseo Luis Aymat, ., ., Bahomamey, San Sebastián","Aguadilla","Expedido","Adjudicado","2015-01-08T00:00:00.000","PUS-CERT","140934.93026691","256745.07391171","No","DOS KIOSKO CON B.A.D. ","Privado","Urbano","RENE GONZALEZ  VELEZ ","(18.3452072143554, -66.9921493530273)","18.345207214355401","-66.992149353027301"
"2015-310082-PUS-11705","Permiso de Uso Certificado","2015-01-08T11:01:00.000","2015","2015.01","284-062-122-08","Hormigueros","Local 1 2 , 164, Plaza Monserrate, Hormigueros, Hormigueros","Aguadilla","Expedido","Adjudicado","2015-01-08T00:00:00.000","PUS-CERT","128011.68744808","233259.67126805001","No","OPTICA (AGUA Y LUZ)","Privado","Urbano","FERNANDO PADILLA ","(18.1326255798339, -67.1135940551757)","18.132625579833899","-67.113594055175696"
"2015-310076-PUS-11704","Permiso de Uso Certificado","2015-01-08T10:31:00.000","2015","2015.01","207-000-010-18","Mayagüez","Palacio De Recreacion Y Deportes, ., Carr. 108 Esq. Pedro Albizu , Barrio Pueblo, Mayagüez","Aguadilla","Expedido","Adjudicado","2015-01-09T00:00:00.000","PUS-CERT","125956.53382111","241751.63516693001","No","TEMPORADA INDIAS VOLLEY BALL FEMENINO","Privado","Urbano","ROBERTO NEGRON ","(18.209280014038, -67.133316040039)","18.209280014038001","-67.133316040039006"
"2014-291672-PUS-11702","Permiso de Uso Certificado","2015-01-08T10:17:00.000","2015","2015.01","056-003-103-08","Manatí","Pr 668, Esq. Cordova Davila, Local 301, Manati Medical Center, Barrio Pueblo, Manatí","Arecibo","Expedido","Adjudicado","2015-01-09T00:00:00.000","PUS-CERT","194838.91673786001","266593.09425566898","No","OJITOS OFTARMOLOGIA PEDIATRICA","Privado","Urbano","ROBERTO RIVERA RIVERA","(18.4349880218505, -66.4821853637695)","18.434988021850501","-66.482185363769503"
"2015-310077-PUS-11703","Permiso de Uso Certificado","2015-01-08T10:17:00.000","2015","2015.01","371-058-331-18","Salinas","712, 5.2, La Plena, Quebrada Yeguas, Salinas","Humacao","Expedido","Adjudicado","2015-01-08T00:00:00.000","PUS-CERT","224135.42584106","223360.42563764","No","COLMADO ALVARADO","Privado","Rural","ORLANDO LOPEZ VEGA","(18.0442600250244, -66.2053756713867)","18.0442600250244","-66.205375671386705"
"2015-310067-PUS-11701","Permiso de Uso Certificado","2015-01-08T10:10:00.000","2015","2015.01","010-000-005-65","Hatillo","Carr. 2, ., Complejo Deportivo , Hatillo, Hatillo","Arecibo","Expedido","Adjudicado","2015-01-08T00:00:00.000","PUS-CERT","159448.4685438","271987.020996109","No","UN KIOSCO CON V.B.A. AL DETAL","Privado","Rural","ELMY MORALES ","(18.4833431243896, -66.8172988891601)","18.483343124389599","-66.817298889160099"
"2015-310065-PUS-11682","Permiso de Uso Certificado","2015-01-08T09:32:00.000","2015","2015.01","100-082-667-04","San Sebastián","Predio Closeo Luis Aymat Cardona , ., ., Bahomamey, San Sebastián","Aguadilla","Expedido","Adjudicado","2015-01-08T00:00:00.000","PUS-CERT","140934.93026691","256745.07391171","No","UN KIOSKO CON B.A.D. ","Privado","Urbano","RAFAEL  TORRES ","(18.3452072143554, -66.9921493530273)","18.345207214355401","-66.992149353027301"
"2015-310061-PUS-11681","Permiso de Uso Certificado","2015-01-08T09:01:00.000","2015","2015.01","100-082-667-04","San Sebastián","Predio Est. Estadio Juan Tit Beniquez, ., ., Bahomamey, San Sebastián","Aguadilla","Expedido","Adjudicado","2015-01-08T00:00:00.000","PUS-CERT","140934.93026691","256745.07391171","No","DOS KIOSKO CON B.A.D. ","Privado","Urbano","JOSUE ECHEVARRIA  MATIAS","(18.3452072143554, -66.9921493530273)","18.345207214355401","-66.992149353027301"
"2015-310007-PUS-11663","Permiso de Uso Certificado","2015-01-07T15:58:00.000","2015","2015.01","070-034-020-38","Moca","Carr. 111, 5.1, Local 404, Barrio Pueblo, Moca","Aguadilla","Expedido","Adjudicado","2015-01-08T00:00:00.000","PUS-CERT","129060.553022919","262039.868115499","Si","Oficina Administrativa para venta de Vehículos","Privado","Urbano","RENE ACEVEDO ","(18.3926830291748, -67.1046752929687)","18.392683029174801","-67.104675292968693"
"2015-310006-PUS-11662","Permiso de Uso Certificado","2015-01-07T15:19:00.000","2015","2015.01","070-034-020-38","Moca","Carr. 111, 5.1, Local 203, Barrio Pueblo, Moca","Aguadilla","Expedido","Adjudicado","2015-01-08T00:00:00.000","PUS-CERT","129060.553022919","262039.868115499","Si","Venta de piezas de Auto nuevas y Usadas","Privado","Urbano","RENE  ACEVEDO ","(18.3926830291748, -67.1046752929687)","18.392683029174801","-67.104675292968693"
"2015-310005-PUS-11661","Permiso de Uso Certificado","2015-01-07T14:33:00.000","2015","2015.01","012-086-139-01","Arecibo","Plaza Publica, ., ., Barrio Pueblo, Arecibo","Arecibo","Expedido","Adjudicado","2015-01-07T00:00:00.000","PUS-CERT","170153.690582109","270709.86781028","No","UN KIOSCO CON V.B.A. AL DETAL, COLLEGE CULTURE","Privado","Urbano","THOMAS  STUART ","(18.4719810485839, -66.7159118652343)","18.471981048583899","-66.715911865234304"
"2015-309996-PUS-11642","Permiso de Uso Certificado","2015-01-07T12:56:00.000","2015","2015.01","054-000-008-33","Arecibo","Carr. 664, Km. 3.8, Roman, Sabana Hoyos, Arecibo","Arecibo","Expedido","Adjudicado","2015-01-07T00:00:00.000","PUS-CERT","182530.339167709","263207.38265052001","No","EL 48","Privado","Rural","ZENNIA  RAMOS CORDERO","(18.4043350219726, -66.5986709594726)","18.404335021972599","-66.598670959472599"
"2013-157445-PUS-11641","Permiso de Uso Certificado","2015-01-07T12:22:00.000","2015","2015.01","050-033-112-07","Camuy","Carr, Pr-486, 5.7, ., Abra Honda, Camuy","Arecibo","Expedido","Adjudicado","2015-01-07T00:00:00.000","PUS-CERT","155215.188455989","265554.38296164002","No","Colmado Papá Teo","Privado","Rural","ELLIOT RUIZ GERENA ","(18.425142288208, -66.8572387695312)","18.425142288208001","-66.857238769531193"
"2015-309983-PUS-11624","Permiso de Uso Certificado","2015-01-07T09:32:00.000","2015","2015.01","112-037-344-16","Toa Alta","Carr.829 /Camino Andino, Lote 3 /Km. 1.7 Int., Bella Vista, Ortiz, Toa Alta","Central","Expedido","Adjudicado","2015-01-07T00:00:00.000","PUS-CERT","223968.8460588","258476.85463289","Si","Apartamento Sr.Wilfredo Hernandez","Privado","Rural","WILFREDO HERNANDEZ ","(18.3615341186523, -66.20654296875)","18.361534118652301","-66.20654296875"
"2015-309976-PUS-11623","Permiso de Uso Certificado","2015-01-07T08:53:00.000","2015","2015.01","190-000-008-02","Jayuya","Carr. 530, Km. 4.8, Sector Limon, Mameyes Arriba, Jayuya","Ponce","Expedido","Adjudicado","2015-01-09T00:00:00.000","PUS-CERT","183002.24208771001","247444.71122488001","No","Residencia Lisbeth Medina Rivera","Privado","Rural","LISBETH MEDINA RIVERA","(18.2619266510009, -66.5940704345703)","18.261926651000898","-66.594070434570298"
"2014-278492-PUS-11622","Permiso de Uso Certificado","2015-01-07T08:24:00.000","2015","2015.01","139-010-029-42","Corozal","N/A Carretera Num. 159, Km. 15.7 Int., Sector  Cuba Libre , Barrio Pueblo, Corozal","Central","Expedido","Adjudicado","2015-01-07T00:00:00.000","PUS-CERT","212635.53294976","256122.74024019","No","Ana M. Ortiz Ramos","Privado","Urbano","ANA ORTIZ  RAMOS","(18.3403625488281, -66.3137893676757)","18.3403625488281","-66.313789367675696"
"2013-222808-PUS-11621","Permiso de Uso Certificado","2015-01-07T07:21:00.000","2015","2015.01","297-000-003-17","Aibonito","Carr. Pr-725, Km 2.6 Int., Sector Toronjo, Llanos, Aibonito","Ponce","Cancelado","Adjudicado","2015-02-07T00:00:00.000","PUS-CERT","215821.63053803","234911.47202222","No","HACIENDA CARIÁN - SISTEMA PV 30.24Kw Ground Mount","Privado","Rural","ANDRÉS NUÑEZ AVILES","(18.1487007141113, -66.2838134765625)","18.1487007141113","-66.2838134765625"
"2011-358287-PUS-11601","Permiso de Uso Certificado","2015-01-06T21:23:00.000","2015","2015.01","418-084-038-01","Salinas","Pr 3, Km 156, Sector El Coqui, Aguirre, Salinas","Humacao","Expedido","Adjudicado","2015-01-27T00:00:00.000","PUS-CERT","221645.2028462","215281.837428609","No","Mejoras Escuela Intermedia 'El Coqui'-Salinas","Alianza Público Privada","Urbano","MEMPHIS CABAN ","(17.9712963104248, -66.2289810180664)","17.971296310424801","-66.228981018066406"
"2014-297756-PUS-11581","Permiso de Uso Completo","2015-01-06T02:06:00.000","2015","2015.01","098-000-001-73","Moca","110, 9.7, Marias, Marías, Moca","Aguadilla","Archivado","Adjudicado","2015-03-26T00:00:00.000","PUS-CONV","127579.03530679","259757.10802752001","No","Taller de Soldadura Sr. Julian Pellot","Privado","Rural","JULIAN PELLOT MORALES","(18.3720092773437, -67.1186218261718)","18.3720092773437","-67.118621826171804"
"2015-309741-PUS-11561","Permiso de Uso Certificado","2015-01-05T18:07:00.000","2015","2015.01","150-008-366-01","Fajardo","Pr-987, Km.1.0, Villa Marina Shopping Center, Sardinera, Fajardo","Central","Expedido","Adjudicado","2015-01-07T00:00:00.000","PUS-CERT","283800.46372241899","256305.48759599001","Si","ICE VENDING SERVICES VILLA MARINA","Privado","Urbano","CARLOS ALMASQUE ","(18.3404102325439, -65.640510559082)","18.340410232543899","-65.640510559082003"
"2015-309878-PUS-11541","Permiso de Uso Certificado","2015-01-05T13:32:00.000","2015","2015.01","362-093-220-05","Guayanilla","127, 383, Magas Arriba, Magas, Guayanilla","Ponce","Expedido","Adjudicado","2015-01-08T00:00:00.000","PUS-CERT","161357.906645999","222009.19768883","No","YAUCO GAS STATION CORP","Privado","Rural","RAFI ABUALROB ","(18.0318393707275, -66.7982711791992)","18.0318393707275","-66.798271179199205"
"2015-309703-PUS-11521","Permiso de Uso Certificado","2015-01-05T11:58:00.000","2015","2015.01","249-010-187-67","Aguas Buenas","Carr.173, Km.6.5 (Int.), Sec. Quilo Aponte, Sumidero, Aguas Buenas","Humacao","Expedido","Adjudicado","2015-01-12T00:00:00.000","PUS-CERT","232420.20211601001","242199.44598248001","Si","Maria I. Aponte Ramos","Privado","Urbano","MARIA I. APONTE RAMOS ","(18.2143592834472, -66.1268310546875)","18.214359283447202","-66.1268310546875"
"2014-309552-PUS-11501","Permiso de Uso Certificado","2015-01-05T11:25:00.000","2015","2015.01","418-084-031-13","Salinas","Barbosa, Núm. 7, Pueblo, Aguirre, Salinas","Humacao","Cancelado","Adjudicado","2015-02-07T00:00:00.000","PUS-CERT","221785.36103602001","215396.43662938901","No","World Apostolic Center/House Of Healing, Inc.","Privado","Urbano","DANNY SORIA ","(17.9723300933837, -66.2276611328125)","17.9723300933837","-66.2276611328125"
"2015-309758-PUS-11481","Permiso de Uso Certificado","2015-01-05T07:42:00.000","2015","2015.01","063-061-993-21","San Juan","Ave. Domenech, Num. 208, Urb. Baldrich, Hato Rey Norte, San Juan","Central","Expedido","Adjudicado","2015-01-12T00:00:00.000","PUS-CERT","239424.395561079","264408.324031859","Si",".CAFE CALDERON.","Privado","Urbano","JESENIA DIAZ  RAMIREZ ","(18.4148941040039, -66.060188293457)","18.414894104003899","-66.060188293457003"
"2015-309706-PUS-11462","Permiso de Uso Completo","2015-01-02T19:38:00.000","2015","2015.01","339-000-009-38","Peñuelas","Pr-132 Int, 0, Sector La Gelpa, Quebrada Ceiba, Peñuelas","Ponce","Expedido","Adjudicado","2015-01-27T00:00:00.000","PUS-CONV","171166.2451233","225861.64959124001","No","VIVIENDA","Privado","Rural","JOSE GALARZA PACHECO","(18.0667991638183, -66.705696105957)","18.066799163818299","-66.705696105957003"
"2014-309578-PUS-11443","Permiso de Uso Certificado","2014-12-31T09:12:00.000","2014","2014.12","089-000-010-33","Canóvanas","Carr Pr - 3, Km 18.4, The Outlet 66 Mall, Barrio Pueblo, Canóvanas","Central","Pre-aprobado","Pendiente",,"PUS-CERT","258139.29940192","260117.42685578001","Si","Just 4 Cuts","Privado","Urbano","MARIANO GRUBBER ","(18.3756999969482, -65.8831787109375)","18.3756999969482","-65.8831787109375"
"2014-309562-PUS-11442","Permiso de Uso Completo","2014-12-31T08:25:00.000","2014","2014.12","060-067-371-19","Toa Baja","Carr. 865, Km 5.6, Bo. Candelaria, Candelaria, Toa Baja","Central","Cancelado","Adjudicado","2015-03-06T00:00:00.000","PUS-CONV","223850.29353661","264243.16382756899","No","Melecio Heavy Equipment Parts & Services Inc.","Privado","Rural","MELECIO HEAVY EQUIPMENT  PARTS & SERVICES INC. ","(18.4136314392089, -66.2075958251953)","18.413631439208899","-66.207595825195298"
"2014-245661-PUS-11441","Permiso de Uso Certificado","2014-12-31T07:13:00.000","2014","2014.12","240-000-008-61","Adjuntas","Pr 123, Interior, Juan Gonzalez, Juan González, Adjuntas","Ponce","Expedido","Adjudicado","2015-01-07T00:00:00.000","PUS-CERT","169263.242696339","240048.87832724","No","RESIDENCIA RIVERA SANTIAGO","Privado","Rural","JONATHAN  RIVERA  ALBARRAN","(18.194953918457, -66.7238845825195)","18.194953918456999","-66.723884582519503"
"2014-309571-PUS-11422","Permiso de Uso Certificado","2014-12-30T16:18:00.000","2014","2014.12","040-002-054-15","San Juan","Tetuan, 201, ., San Juan Antiguo, San Juan","Central","Expedido","Adjudicado","2014-12-30T00:00:00.000","PUS-CERT","233555.045330019","269887.98795809899","Si","RESTAURANTE CON BAD","Privado","Urbano","NAHIRA GONZALEZ MARTINEZ","(18.464500427246, -66.1156539916992)","18.464500427246001","-66.115653991699205"
"2012-089164-PUS-11401","Permiso de Uso Certificado","2014-12-29T14:59:00.000","2014","2014.12","361-083-107-02","Yauco","Carretera Pr-368, 1.2, Susua Baja, Susúa Baja, Yauco","Ponce","Expedido","Adjudicado","2014-12-29T00:00:00.000","PUS-CERT","154887.59465267","222364.78029920001","Si","Remodelacion Esc Vocacional Santiago Rivera Garcia","Público","Urbano","MEMPHIS CABAN ","(18.0349254608154, -66.859390258789)","18.034925460815401","-66.859390258789006"
"2014-309416-PUS-11361","Permiso de Uso Completo","2014-12-28T00:45:00.000","2014","2014.12","112-004-442-05","Toa Alta","Calle Amapola, Lote Num. 3, Villas Del Toa, Mucarabones, Toa Alta","Central","Cancelado","Adjudicado","2015-03-12T00:00:00.000","PUS-CONV","221761.98059423","259728.53269943901","No","CASA DE RESTAURACION JEHOVA RAFA: EL DIOS SANADOR,","Privado","Rural","JOSE COLON ALAMO","(18.3728656768798, -66.2274093627929)","18.372865676879801","-66.227409362792898"
"2013-198926-PUS-11341","Permiso de Uso Certificado","2014-12-27T04:21:00.000","2014","2014.12","213-084-240-17","Adjuntas","# 18 # 129, Km.3.0, Bo.Portillo, Portillo, Adjuntas","Ponce","Cancelado","Adjudicado","2015-02-07T00:00:00.000","PUS-CERT","162094.61933660001","243150.94874679","No","Sr.Joel Jimenez Gonzalez ySra.Zuheily Caban","Privado","Rural","SR.JOEL JIMENEZ GONZALEZ","(18.2228660583496, -66.7917098999023)","18.222866058349599","-66.791709899902301"
"2014-244882-PUS-11325","Permiso de Uso Certificado","2014-12-26T10:24:00.000","2014","2014.12","024-089-292-54","Moca","Calle Barriaco, Carr. Pr-464, Km.4.0, Calle Estatal, Aceitunas, Moca","Aguadilla","Expedido","Adjudicado","2015-01-07T00:00:00.000","PUS-CERT","132031.96017231001","267088.98052902002","No","Permiso de Viviana R. Pyatt Villanueva","Privado","Rural","VIVIANA  PYATT VILLANUEVA","(18.4383964538574, -67.0767288208007)","18.438396453857401","-67.076728820800696"
"2014-309320-PUS-11306","Permiso de Uso Completo","2014-12-24T14:46:00.000","2014","2014.12","188-049-037-15","Utuado","Ave. Esteves, #18-19 Local 5, Vivi Abajo, Barrio Pueblo, Utuado","Arecibo","Expedido","Adjudicado","2015-01-28T00:00:00.000","PUS-CONV","172154.94469161","247924.37796027001","No","Iglesia El Calvario de Utuado","Privado","Urbano","IGLESIA EL CALVARIO ","(18.2661476135253, -66.6966552734375)","18.266147613525298","-66.6966552734375"
"2014-309317-PUS-11304","Permiso de Uso Certificado","2014-12-24T12:07:00.000","2014","2014.12","196-053-178-16","Naranjito","Carr #152, Km 5.0, La Sierra, Anones, Naranjito","Central","Expedido","Adjudicado","2015-01-05T00:00:00.000","PUS-CERT","220958.32035704001","247304.88934493001","Si","Juan Hernandez","Privado","Rural","JUAN HERNANDEZ ","(18.2606296539306, -66.2351379394531)","18.2606296539306","-66.235137939453097"
"2014-309316-PUS-11303","Permiso de Uso Certificado","2014-12-24T11:24:00.000","2014","2014.12","196-031-122-47","Naranjito","Carr #878, Km 2.6, La Maya, Anones, Naranjito","Central","Expedido","Adjudicado","2015-01-05T00:00:00.000","PUS-CERT","220085.16556699001","248181.16922323001","Si","Rafael Rodriguez Hernandez","Privado","Rural","RAFAEL RODRIGUEZ ","(18.26855435, -66.24338989)","18.268554349999999","-66.243389890000003"
"2014-278051-PUS-11302","Permiso de Uso Certificado","2014-12-24T10:37:00.000","2014","2014.12","279-066-264-01","Las Piedras","Lote  Num. Carr. Pr  -183, Km 18.0  Interior, Sector Los Ramirez, Montones, Las Piedras","Humacao","Expedido","Adjudicado","2014-12-24T00:00:00.000","PUS-CERT","256124.796896919","236644.02713281001","No","CONSTRUCCION VIVIENDA JUAN ROMAN SANTANA","Privado","Urbano","JUAN SANTANA CANTRES","(18.1636773860427, -65.9028839760694)","18.1636773860427","-65.902883976069404"
"2014-233111-PUS-11301","Permiso de Uso Certificado","2014-12-24T10:28:00.000","2014","2014.12","053-000-009-96","Arecibo","Carr. Pr-367, Km. 0.6 Interior, Sector Miraflores, Miraflores, Arecibo","Arecibo","Expedido","Adjudicado","2015-01-14T00:00:00.000","PUS-CERT","177280.64820538001","264681.99089740001","No","Residencia Hector Molina","Privado","Rural","HECTOR MOLINA ","(18.4176082611083, -66.6483688354492)","18.417608261108299","-66.648368835449205"
"2014-309301-PUS-11282","Permiso de Uso Certificado","2014-12-24T09:15:00.000","2014","2014.12","420-032-048-04","Guayama","2do Nivel Calle Calimano, Num. 163, Calle Calimano, Barrio Pueblo, Guayama","Humacao","Cancelado","Adjudicado","2015-02-07T00:00:00.000","PUS-CERT","233813.929471179","217095.323058879","No","Centro de Formacion Fluyendo en las Artes, Inc.","Privado","Urbano","MICHAEL HERNANDEZ ","(17.9875240325927, -66.1140747070312)","17.987524032592699","-66.114074707031193"
"2014-309298-PUS-11281","Permiso de Uso Certificado","2014-12-24T08:23:00.000","2014","2014.12","056-013-536-02","Manatí","Calle 14 H-17 , Local 2, Urb. Flamboyan, Barrio Pueblo, Manatí","Arecibo","Expedido","Adjudicado","2014-12-24T00:00:00.000","PUS-CERT","194544.37059226001","266119.973923599","No","EMPRESAS ROC, LLC","Privado","Urbano","EMPRESAS ROC LLC ","(18.4307136535644, -66.4849777221679)","18.4307136535644","-66.484977722167898"
"2012-020174-PUS-11262","Permiso de Uso Certificado","2014-12-24T06:24:00.000","2014","2014.12","245-003-141-03","Orocovis","Pr-157, Km 24.1  Int., El Parque, Saltos, Orocovis","Ponce","Expedido","Adjudicado","2014-12-24T00:00:00.000","PUS-CERT","201252.86635818001","242340.49542367001","No","Residencia Luis A Ortiz Maldonado","Privado","Rural","LUIS ORTIZ MALDONADO","(18.2158775329589, -66.4214859008789)","18.215877532958899","-66.421485900878906"
"2014-275601-PUS-11243","Permiso de Uso Certificado","2014-12-23T21:48:00.000","2014","2014.12","154-025-129-05","Añasco","Local Carr.  Pr. 2, Km. 142.8, Sector, Caracol, Añasco","Aguadilla","Expedido","Adjudicado","2015-01-26T00:00:00.000","PUS-CERT","123530.15880036","252041.899496339","No","CONSTRUCCION AMPLIACION PARA 2 LOCALES COMERCIALES","Privado","Rural","SR. HECTOR SOTO 00610","(18.3021640777587, -67.156639099121)","18.3021640777587","-67.156639099120994"
"2013-220103-PUS-11242","Permiso de Uso Certificado","2014-12-23T21:27:00.000","2014","2014.12","083-074-160-22","Toa Alta","Calle 4, # B-10-A, Urb Hacienda Del Dorado, Río Lajas, Toa Alta","Central","Expedido","Adjudicado","2014-12-24T00:00:00.000","PUS-CERT","215339.774819899","260686.484907429","No","CONSTRUCCION DE RESIDENCIA SR. JAIME ROSA NALES","Privado","Rural","JAIME ROSA NALES","(18.3815765380859, -66.2881698608398)","18.381576538085898","-66.288169860839801"
"2014-309256-PUS-11241","Permiso de Uso Certificado","2014-12-23T21:17:00.000","2014","2014.12","196-022-122-48","Naranjito","Carr #780, Km 6.1, La Maya, Anones, Naranjito","Central","Expedido","Adjudicado","2015-01-05T00:00:00.000","PUS-CERT","220140.01534231001","248340.91862037001","Si","Maria L Rodriguez Hernandez","Privado","Rural","MARIA RODRIGUEZ ","(18.26999714, -66.24286961)","18.269997140000001","-66.24286961"
"2014-309236-PUS-11221","Permiso de Uso Certificado","2014-12-23T18:26:00.000","2014","2014.12","041-076-035-13","Carolina","Isla Verde, 5910, ., Cangrejo Arriba, Carolina","Central","Expedido","Adjudicado","2014-12-23T00:00:00.000","PUS-CERT","243077.78834977001","267527.41595125","Si","NAGOYA COFFE SHOP","Privado","Urbano","SUSHI MIKE INC ","(18.4430027008056, -66.0255432128906)","18.4430027008056","-66.025543212890597"
"2014-297406-PUS-11201","Permiso de Uso Certificado","2014-12-23T18:01:00.000","2014","2014.12","058-079-160-02","Vega Alta","Carr. #2, Km 29.7, Centro Gran Caribe, Espinosa, Vega Alta","Arecibo","Expedido","Adjudicado","2014-12-23T00:00:00.000","PUS-CERT","211886.223894639","264105.37688593898","Si","Papa Johns Vega Alta","Privado","Urbano","JUAN COBO ","(18.4124870300292, -66.3208312988281)","18.412487030029201","-66.320831298828097"
"2011-694289-PUS-11181","Permiso de Uso Certificado","2014-12-23T14:49:00.000","2014","2014.12","099-000-009-25","San Sebastián","Carr   Pr 125, Km. 19.1, Int., Guatemala, Guatemala, San Sebastián","Aguadilla","Expedido","Adjudicado","2014-12-23T00:00:00.000","PUS-CERT","138979.788211359","256807.730746279","No","San Antonio de la Plata - 3","Privado","Rural","RUBÉN RAMIREZ FONT","(18.345718383789, -67.0106506347656)","18.345718383788999","-67.010650634765597"
"2014-301783-PUS-11172","Permiso de Uso Completo","2014-12-23T12:54:00.000","2014","2014.12","188-027-147-18","Utuado","A #E 59 Carretera 123, Km. 54 , Barriada, Salto Abajo, Utuado","Arecibo","Expedido","Adjudicado","2015-02-03T00:00:00.000","PUS-CONV","170638.55561174001","248553.675945939","No","Carlos Cuevas Serrano 'Cuevas Critical Transport '","Privado","Urbano","CARLOS CUEVAS SERRANO","(18.2718124389648, -66.7110061645507)","18.271812438964801","-66.711006164550696"
"2011-158320-PUS-11171","Permiso de Uso Certificado","2014-12-23T12:49:00.000","2014","2014.12","150-025-038-15","Fajardo","Ave. Conquistador, M-10, Urb. Veve Calzada, Barrio Pueblo, Fajardo","Central","Expedido","Adjudicado","2014-12-23T00:00:00.000","PUS-CERT","281995.02954453899","255704.722269569","No","construccion plaza del rio","Privado","Rural","HORACIO DIAZ ","(18.3350524902343, -65.657615661621)","18.3350524902343","-65.657615661620994"
"2014-293841-PUS-11169","Permiso de Uso Certificado","2014-12-23T11:59:00.000","2014","2014.12","421-011-128-04","Arroyo","Carr. 753, ., ., Pitahaya, Arroyo","Humacao","Expedido","Adjudicado","2014-12-29T00:00:00.000","PUS-CERT","239689.201212919","217873.287767339","Si","Jesus Alicea Rodriguez ","Privado","Rural","JESUS ALICEA RODRIGUEZ  ","(17.9944515228271, -66.0585861206054)","17.994451522827099","-66.058586120605398"
"2014-309105-PUS-11167","Permiso de Uso Certificado","2014-12-23T11:19:00.000","2014","2014.12","012-075-071-03","Arecibo","Calle Manuel Pérez, Esq. Ana Lens , ., ., Barrio Pueblo, Arecibo","Arecibo","Expedido","Adjudicado","2014-12-23T00:00:00.000","PUS-CERT","169278.10265186901","270950.48945763003","No","Oficina Médica Dr Sebastián Infanzón","Privado","Urbano","DR. SEBASTIÁN INFANZÓN RODRÍGUEZ ","(18.4741420745849, -66.7242126464843)","18.474142074584901","-66.724212646484304"
"2014-307116-PUS-11168","Permiso de Uso Certificado","2014-12-23T11:19:00.000","2014","2014.12","058-070-042-14","Vega Alta","Carr. #2 Km. 29.3, Local 3, #143, Espinosa, Vega Alta","Arecibo","Expedido","Adjudicado","2014-12-29T00:00:00.000","PUS-CERT","212535.09101326001","264278.72309215","Si","Terra Tile","Privado","Urbano","GLORICRUZ REYES RIVERA","(18.4140491485595, -66.3146896362304)","18.414049148559499","-66.314689636230398"
"2014-287142-PUS-11166","Permiso de Uso Certificado","2014-12-23T11:18:00.000","2014","2014.12","266-000-001-38","Adjuntas","Carr. Pr 522, Km .4, Frente Villas Soto Mayor, Garzas, Adjuntas","Ponce","Expedido","Adjudicado","2014-12-23T00:00:00.000","PUS-CERT","167287.838322589","238164.02137713","No","Gazebo con Baño y Almacen de Arnaldo Jimenez","Privado","Rural","ARNALDO JIMENEZ ","(18.178653717041, -66.7376556396484)","18.178653717041001","-66.737655639648395"
"2014-309099-PUS-11165","Permiso de Uso Certificado","2014-12-23T11:17:00.000","2014","2014.12","233-038-215-01","Mayagüez","Betances Esq, Morell Campos, ., # 73 Norte Calle Ramon E. , Barrio Pueblo, Mayagüez","Aguadilla","Expedido","Adjudicado","2014-12-23T00:00:00.000","PUS-CERT","125211.75047603001","241269.87795654","No","BARRA-MINI-MARKET (PAT.BEBS.ALCH.Y CIGS.)","Privado","Urbano","ARIEL HERNANDEZ ","(18.2049007415771, -67.1403427124023)","18.204900741577099","-67.140342712402301"
"2014-309098-PUS-11164","Permiso de Uso Certificado","2014-12-23T10:52:00.000","2014","2014.12","129-012-047-04","San Sebastián","Carr 413  Interior , 3.3 , ., Barrio Pueblo, San Sebastián","Aguadilla","Expedido","Adjudicado","2014-12-23T00:00:00.000","PUS-CERT","140989.18849177001","255751.58258556001","No","ESTACIONAMIENTO ","Privado","Rural","RONALD BURSENDA ","(18.336233139038, -66.9916076660156)","18.336233139038001","-66.991607666015597"
"2014-296783-PUS-11163","Permiso de Uso Certificado","2014-12-23T10:40:00.000","2014","2014.12","090-000-006-23","Luquillo","Pr-3 , 34.8 Interior, Fortuna, Mameyes I, Luquillo","Central","Expedido","Adjudicado","2014-12-26T00:00:00.000","PUS-CERT","259801.13128333","260638.844813609","Si","OCEAN BLUE","Privado","Rural","JOSE PADILLA ","(18.3803653717041, -65.8674392700195)","18.380365371704102","-65.867439270019503"
"2014-309085-PUS-11162","Permiso de Uso Certificado","2014-12-23T10:34:00.000","2014","2014.12","344-000-009-32","Coamo","5559, 1.8, ., San Ildefonso, Coamo","Ponce","Expedido","Adjudicado","2014-12-23T00:00:00.000","PUS-CERT","204398.157399619","225831.367420439","No","Carlos Paint","Privado","Rural","CARLOS REYES SANCHEZ","(18.0667152404785, -66.3917846679687)","18.066715240478501","-66.391784667968693"
"2014-309096-PUS-11161","Permiso de Uso Certificado","2014-12-23T10:26:00.000","2014","2014.12","397-000-005-08","Arroyo","Int. 754, ., Sector Palmarejo, Yaurel, Arroyo","Humacao","Expedido","Adjudicado","2014-12-23T00:00:00.000","PUS-CERT","239227.51262928001","221617.76588712001","No","UN (1) KIOSKO 'RENACER NAVIDEÑO' CON VBAD","Privado","Rural","LUIS RAMOS DE JESUS","(18.0282917022705, -66.062873840332)","18.028291702270501","-66.062873840332003"
"2014-308457-PUS-11148","Permiso de Uso Certificado","2014-12-23T09:59:00.000","2014","2014.12","350-983-530-03","Vega Baja","Carr 688, Km 2.3, Sabana, Cabo Caribe, Vega Baja","Arecibo","Expedido","Adjudicado","2014-12-23T00:00:00.000","PUS-CERT",,,"Si","Caribbean Decor Stone - Cambio de Dueño","Privado","Rural","RAFAEL CASANOVA TIRADO",,,
"2011-799454-PUS-11147","Permiso de Uso Certificado","2014-12-23T09:17:00.000","2014","2014.12","003-094-278-74","Isabela","459, 14.5 Int., Bejucos, Bejucos, Isabela","Aguadilla","Cancelado","Adjudicado","2015-04-03T00:00:00.000","PUS-CERT","135743.14587096","273778.432844489","No","Construcción de Residencia del Sr. Mercado","Privado","Rural","MANRIQUE MERCADO ","(18.4989471435546, -67.0418090820312)","18.498947143554599","-67.041809082031193"
"2014-241152-PUS-11146","Permiso de Uso Certificado","2014-12-23T09:13:00.000","2014","2014.12","391-000-010-02","Juana Díaz","Carretera Estatal Pr-1, 108.2, Comunidad Santy, Río Cañas Abajo, Juana Díaz","Ponce","Expedido","Adjudicado","2014-12-23T00:00:00.000","PUS-CERT","198590.325988439","219740.33519051","No","140115-01 Techo de Metal - Monsanto","Privado","Rural","JUAN SANTIAGO CABÁN","(18.0116863250732, -66.4466476440429)","18.0116863250732","-66.446647644042898"
"2014-309084-PUS-11144","Permiso de Uso Certificado","2014-12-23T09:05:00.000","2014","2014.12","215-000-001-12","Utuado","Carr. 605, 1.2, ., Viví Arriba, Utuado","Arecibo","Expedido","Adjudicado","2014-12-23T00:00:00.000","PUS-CERT","174496.39266533","244394.229393619","No","Brisas del Viví","Privado","Rural","FRANK RIVAS MÁRQUEZ ","(18.2342815399169, -66.6744689941406)","18.2342815399169","-66.674468994140597"
"2014-308816-PUS-11142","Permiso de Uso Certificado","2014-12-23T08:25:00.000","2014","2014.12","032-073-767-24","Arecibo","Carretera Pr-2, Km. 62.3 Int., N/A, Garrochales, Arecibo","Arecibo","Expedido","Adjudicado","2014-12-23T00:00:00.000","PUS-CERT","181533.755902139","267436.362993869","No","Permiso de Uso Anibal Ortíz","Privado","Rural","ANIBAL ORTIZ TORRES","(18.4425334930419, -66.6081390380859)","18.4425334930419","-66.608139038085895"
"2014-301784-PUS-11141","Permiso de Uso Completo","2014-12-23T08:13:00.000","2014","2014.12","188-037-135-16","Utuado","Edificio 2 Carr. 123 , Local # 10 , Centro Comercial Cabrera , Barrio Pueblo, Utuado","Arecibo","Expedido","Adjudicado","2015-02-05T00:00:00.000","PUS-CONV","170739.437186119","247992.27753565001","No","Alexis Sepulveda ' Sepulveda Ambulance '","Privado","Urbano","ALEXIS  SEPULVEDA ","(18.2667427062988, -66.7100448608398)","18.2667427062988","-66.710044860839801"
"2014-305921-PUS-11121","Permiso de Uso Certificado","2014-12-23T00:18:00.000","2014","2014.12","253-000-009-45","Las Piedras","Carr. #198, Km 18.60, Ceib A, Ceiba, Las Piedras","Humacao","Expedido","Adjudicado","2014-12-23T00:00:00.000","PUS-CERT","256838.81044247001","240820.8113189","No","CONSTRUCCION RESIDENCIA MANUEL CORDERO","Privado","Rural","MANUEL  CORDERO ","(18.20139503479, -65.8960189819335)","18.20139503479","-65.896018981933494"
"2014-300622-PUS-11103","Permiso de Uso Certificado","2014-12-22T19:47:00.000","2014","2014.12","018-055-026-48","Vega Alta","Calle Narciso Correa, Lote # 11, Sector Cerro Gordo, Sabana, Vega Alta","Arecibo","Cancelado","Adjudicado","2015-02-14T00:00:00.000","PUS-CERT","209088.47364439","271668.50146032003","No","Construccion vivienda Brenda Lee Rivera","Privado","Rural","BRENDA  RIVERA HERNANDEZ","(18.4808292388916, -66.3472824096679)","18.480829238891602","-66.347282409667898"
"2014-308861-PUS-11101","Permiso de Uso Completo","2014-12-22T19:37:00.000","2014","2014.12","266-074-042-27","Adjuntas","Dr Barbosa, 20, Pueblo, Barrio Pueblo, Adjuntas","Ponce","Cancelado","Adjudicado","2015-02-16T00:00:00.000","PUS-CONV","169186.02686290001","236428.870884459","No","FERNANDINI OPTICAL GALLERY,INC","Privado","Rural","HECTOR  ORTIZ FERNANDINI","(18.1622467041015, -66.7245635986328)","18.162246704101499","-66.724563598632798"
"2014-309018-PUS-11092","Permiso de Uso Certificado","2014-12-22T15:59:00.000","2014","2014.12","422-000-002-15","Patillas","Carr #757, Km 1.7, Los Pollos, Bajo, Patillas","Humacao","Expedido","Adjudicado","2014-12-23T00:00:00.000","PUS-CERT","247379.85720125001","217345.54201337","Si","Oscar Ortiz Santiago","Privado","Rural","OSCAR ORTIZ ","(17.9895286560058, -65.9859771728515)","17.989528656005799","-65.985977172851506"
"2014-308978-PUS-11091","Permiso de Uso Certificado","2014-12-22T15:52:00.000","2014","2014.12","031-079-055-14","Arecibo","Carr.Pr-2, Km. 65.3, Factor 2, Factor, Arecibo","Arecibo","Expedido","Adjudicado","2015-01-07T00:00:00.000","PUS-CERT","178719.794589839","267392.15453986899","Si","Controling The Game ","Privado","Rural","RALPH  ARGUELLES TORRES","(18.4421081542968, -66.634780883789)","18.4421081542968","-66.634780883789006"
"2014-309000-PUS-11090","Permiso de Uso Certificado","2014-12-22T15:22:00.000","2014","2014.12","440-090-004-12","Guayama","Carretera Pr-3, Ramal 7710, Km. 5.0, Sector Pozuelo, Jobos, Guayama","Humacao","Expedido","Adjudicado","2014-12-24T00:00:00.000","PUS-CERT","225512.01035805","211824.012979569","Si","LA SABROSURA RESTAURANT & SPORT BAR","Privado","Rural","HECTOR ENCHAUTEGUI ","(17.9400119781494, -66.1925201416015)","17.9400119781494","-66.192520141601506"
"2014-308977-PUS-11089","Permiso de Uso Certificado","2014-12-22T15:04:00.000","2014","2014.12","031-079-055-14","Arecibo","Carr.Pr-2, Km. 65.3, Factor 2, Factor, Arecibo","Arecibo","Expedido","Adjudicado","2015-01-07T00:00:00.000","PUS-CERT","178719.794589839","267392.15453986899","Si","MAGUEYES MEDICA SUPPLY","Privado","Rural","IRIS TORRES ","(18.4421081542968, -66.634780883789)","18.4421081542968","-66.634780883789006"
"2013-201113-PUS-11088","Permiso de Uso Certificado","2014-12-22T15:03:00.000","2014","2014.12","299-034-004-75","Cidra","Carretera Núm. 171, 5.0 (Int.), Sector Nogueras, Rincón, Cidra","Humacao","Expedido","Adjudicado","2014-12-22T00:00:00.000","PUS-CERT","228417.546362269","234190.543630959","Si","Centro de Transporte ","Privado","Urbano","JOSÉ RIVERA PÉREZ","(18.1420574188232, -66.1647872924804)","18.1420574188232","-66.164787292480398"
"2014-308977-PUS-11087","Permiso de Uso Certificado","2014-12-22T14:58:00.000","2014","2014.12","031-079-055-14","Arecibo","Carr.Pr-2, Km. 65.3, Factor 2, Factor, Arecibo","Arecibo","Expedido","Adjudicado","2015-01-07T00:00:00.000","PUS-CERT","178719.794589839","267392.15453986899","Si","MAGUEYES MEDICA SUPPLY","Privado","Rural","IRIS TORRES ","(18.4421081542968, -66.634780883789)","18.4421081542968","-66.634780883789006"
"2014-308980-PUS-11084","Permiso de Uso Certificado","2014-12-22T14:37:00.000","2014","2014.12","031-079-055-14","Arecibo","Carr.Pr-2, Km. 65.3, Factor 2, Factor, Arecibo","Arecibo","Expedido","Adjudicado","2015-01-07T00:00:00.000","PUS-CERT","178719.794589839","267392.15453986899","Si","Cafeteria Danny","Privado","Rural","LUIS  CUBANO TORRES","(18.4421081542968, -66.634780883789)","18.4421081542968","-66.634780883789006"
"2013-213088-PUS-11083","Permiso de Uso Certificado","2014-12-22T14:34:00.000","2014","2014.12","011-054-102-04","Hatillo","Calle C , Solar 120, Carrizales , Carrizales, Hatillo","Arecibo","Expedido","Adjudicado","2015-03-02T00:00:00.000","PUS-CERT","162464.167785189","271735.633131259","No","Permiso Const. Iglesia Cristiana Puerta Esperanza","Privado","Rural","ANGEL HERNANDEZ MARTINEZ","(18.4811267852783, -66.7887344360351)","18.481126785278299","-66.788734436035099"
"2014-308998-PUS-11082","Permiso de Uso Certificado","2014-12-22T14:16:00.000","2014","2014.12","420-000-008-18","Guayama","Carr # 3 , Km 134.8, Plaza Guayama Mall, Algarrobo, Guayama","Humacao","Expedido","Adjudicado","2014-12-23T00:00:00.000","PUS-CERT",,,"Si","Rinconcito Natural LLC","Privado","Rural","JORGE ESPADA ",,,
"2014-308396-PUS-11061","Permiso de Uso Certificado","2014-12-22T13:00:00.000","2014","2014.12","297-044-129-36","Aibonito","Carr. #162, Km. 1.9 Int.,, Llanos, Llanos, Aibonito","Ponce","Cancelado","Adjudicado","2015-01-22T00:00:00.000","PUS-CERT","215055.032587939","233985.71718055001","No","ISRAEL TORRES COLON","Privado","Rural","ISRAEL TORRES ","(18.1403413550763, -66.2910636417179)","18.140341355076298","-66.291063641717898"
"2014-296525-PUS-11044","Permiso de Uso Certificado","2014-12-22T11:46:00.000","2014","2014.12","127-061-105-09","Añasco","4403, 3.5 Int., Los Pinos, Humatas, Añasco","Aguadilla","Expedido","Adjudicado","2014-12-22T00:00:00.000","PUS-CERT","127202.00431156","254305.43106559","No","Residencia Manuel Ruiz, solar Remanente","Privado","Rural","MANUEL RUIZ VEGA","(18.3227424621582, -67.1219940185546)","18.3227424621582","-67.121994018554602"
"2014-308983-PUS-11042","Permiso de Uso Certificado","2014-12-22T10:51:00.000","2014","2014.12","008-050-001-41","Quebradillas","Carr. 2, 102.1, ., Terranova, Quebradillas","Aguadilla","Expedido","Adjudicado","2014-12-22T00:00:00.000","PUS-CERT","146350.64120955","271957.37212049001","No","GONZALEZ SHELL INC.","Privado","Rural","NESTOR GONZALEZ ","(18.4827861785888, -66.9413146972656)","18.4827861785888","-66.941314697265597"
"2014-305039-PUS-11025","Permiso de Uso Certificado","2014-12-22T09:15:00.000","2014","2014.12","335-037-034-01","Sabana Grande","Betances, Plaza Busigo, Pueblo, Barrio Pueblo, Sabana Grande","Aguadilla","Cancelado","Adjudicado","2014-12-23T00:00:00.000","PUS-CERT","144248.664768199","227321.33973532001","No","1 KIOSKO BEBIDAS - ENCENDIDO DE NAVIDAD","Privado","Urbano","DIANA CRUZ ","(18.0794582366943, -66.9599990844726)","18.0794582366943","-66.959999084472599"
"2013-228259-PUS-11023","Permiso de Uso Certificado","2014-12-22T08:20:00.000","2014","2014.12","188-007-162-53","Utuado","Ave. Fernando Luis Rivas Dominicci, Est. Parque Ramón Cabañas, Urb. Jesús María Lago, Salto Abajo, Utuado","Arecibo","Expedido","Adjudicado","2014-12-22T00:00:00.000","PUS-CERT","170951.656280389","248939.94060100001","No","1 Kiosco Bebidas Alcohólicas/Festival Nacional BBQ","Privado","Urbano","RAFAEL MORÁN VÉLEZ ","(18.2753067016601, -66.7080535888671)","18.275306701660099","-66.708053588867102"
"2014-308296-PUS-10941","Permiso de Uso Certificado","2014-12-19T21:18:00.000","2014","2014.12","417-000-003-49","Salinas","Camino El Coco, Solar #14, Sector Godreau, Aguirre, Salinas","Humacao","Expedido","Adjudicado","2015-02-23T00:00:00.000","PUS-CERT","216217.87410797901","216637.99229674001","No","Permiso de Uso Apartamentos Residenciales","Privado","Rural","PEDRO CORREA MORALES ","(17.9835968017578, -66.2802124023437)","17.983596801757798","-66.280212402343693"
"2014-305736-PUS-10921","Permiso de Uso Certificado","2014-12-19T20:31:00.000","2014","2014.12","114-056-003-03","San Juan","Pr-1, 18.1 Marginal, Sector Minao, Caimito, San Juan","Central","Expedido","Adjudicado","2014-12-19T00:00:00.000","PUS-CERT",,,"Si","HARD ROCK DESIGN - SJ","Privado","Rural","JOSE GARCIA BLANCO",,,
"2013-199368-PUS-10901","Permiso de Uso Certificado","2014-12-19T17:27:00.000","2014","2014.12","345-005-430-48","Coamo","Carretera Pr 5556, 1.2, Urb. Los Flamboyanes, Pasto, Coamo","Ponce","Expedido","Adjudicado","2014-12-22T00:00:00.000","PUS-CERT","209350.72878937901","228551.45442158001","No","Urb. Los Flamboyanes","Privado","Urbano","RAMÓN MISLA ","(18.0912761688232, -66.3449935913085)","18.0912761688232","-66.344993591308494"
"2014-306977-PUS-10881","Permiso de Uso Certificado","2014-12-19T17:07:00.000","2014","2014.12","143-009-008-04","San Juan","Ave. Los Romeros, 1621, Centro Comercial Montehiedra, Caimito, San Juan","Central","Expedido","Adjudicado","2014-12-26T00:00:00.000","PUS-CERT","238598.340776809","256003.89764504001","Si","Yogen Fruz, Montehiedra","Privado","Urbano","JOAN HODGSON ","(18.3389778137207, -66.0681686401367)","18.3389778137207","-66.068168640136705"
"2014-287142-PUS-10861","Permiso de Uso Certificado","2014-12-19T16:53:00.000","2014","2014.12","266-000-001-38","Adjuntas","Carr. Pr 522, Km .4, Frente Villas Soto Mayor, Garzas, Adjuntas","Ponce","Cancelado","Adjudicado","2015-01-22T00:00:00.000","PUS-CERT","167287.838322589","238164.02137713","No","Gazebo con Baño y Almacen de Arnaldo Jimenez","Privado","Rural","ARNALDO JIMENEZ ","(18.178653717041, -66.7376556396484)","18.178653717041001","-66.737655639648395"
"2014-308578-PUS-10841","Permiso de Uso Certificado","2014-12-19T16:06:00.000","2014","2014.12","039-048-309-40","Cataño","Ave. Los Conquistadores Num. 150, Local Num. 02b, Centro Comercial Marina Bahia, Palmas, Cataño","Central","Expedido","Adjudicado","2014-12-24T00:00:00.000","PUS-CERT","230706.469698189","268336.53557458002","Si","LABORATORIO CLINICO TERESITA II","Privado","Urbano","JOSE  MORENO RODRIGUEZ","(18.4505271911621, -66.1426391601562)","18.450527191162099","-66.142639160156193"
"2014-308557-PUS-10821","Permiso de Uso Certificado","2014-12-19T13:42:00.000","2014","2014.12","233-048-224-15","Mayagüez",". Calle De Diego # 55-E, Suite #  203, Edif. Cpr Profesional Building, Barrio Pueblo, Mayagüez","Aguadilla","Expedido","Adjudicado","2014-12-19T00:00:00.000","PUS-CERT","125344.19077994001","241004.78203084","No","OFICINA MEDICA (CAMBIO DE DUEÑO)","Privado","Urbano","GILBERTO  BAEZ ","(18.2025108337402, -67.1390838623046)","18.202510833740199","-67.139083862304602"
"2014-308516-PUS-10802","Permiso de Uso Certificado","2014-12-19T12:55:00.000","2014","2014.12","189-092-179-25","Utuado","Carr. 111, Km. 3.3, ., Viví Abajo, Utuado","Arecibo","Expedido","Adjudicado","2014-12-19T00:00:00.000","PUS-CERT","174334.72477293","246149.14502232001","No","LA CABAÑA BAR & GRILL II","Privado","Urbano","LOURDES MORALES ","(18.2501354217529, -66.676025390625)","18.250135421752901","-66.676025390625"
"2014-308498-PUS-10801","Permiso de Uso Certificado","2014-12-19T12:48:00.000","2014","2014.12","233-058-342-12","Mayagüez","Calle Santiago R. Palmer # 11, ., Estacionamiento Hotel El Sol, Barrio Pueblo, Mayagüez","Aguadilla","Expedido","Adjudicado","2014-12-19T00:00:00.000","PUS-CERT","125200.563005909","240777.666713399","No","SLUGGERPUB FIESTA NAVIDAD UN KIOSKO","Privado","Urbano","GUSTAVO CRUZADO ","(18.200454711914, -67.1404342651367)","18.200454711913999","-67.140434265136705"
"2014-271540-PUS-10781","Permiso de Uso Certificado","2014-12-19T12:26:00.000","2014","2014.12","030-052-464-47","Arecibo","Calle Num. 8, Lote L-29, Urb. San Felipe, Hato Abajo, Arecibo","Arecibo","Expedido","Adjudicado","2014-12-22T00:00:00.000","PUS-CERT","167533.56299491","268302.09755737003","No","Segunda planta en residencia de Samuel Calderon ","Privado","Urbano","SAMUEL CALDERON ","(18.4501895904541, -66.7406845092773)","18.450189590454102","-66.740684509277301"
"2014-308356-PUS-10761","Permiso de Uso Certificado","2014-12-19T09:50:00.000","2014","2014.12","352-056-010-20","Yabucoa","Carr. 902, ., Sector Martorell, Limones, Yabucoa","Humacao","Expedido","Adjudicado","2014-12-19T00:00:00.000","PUS-CERT","256344.66060803001","226944.26403521001","No","KIOSKO CON BEBIDAS ALCOHOLICAS Y COMIDA","Privado","Rural","IDELIZA SANCHEZ RODRIGUEZ","(18.0760345458984, -65.9010696411132)","18.076034545898398","-65.901069641113196"
"2014-296096-PUS-10745","Permiso de Uso Certificado","2014-12-19T09:02:00.000","2014","2014.12","068-080-052-01","Aguada","Plaza Pública Cristóbal Colón, 0.0, Pueblo, Barrio Pueblo, Aguada","Aguadilla","Expedido","Adjudicado","2014-12-19T00:00:00.000","PUS-CERT","120168.514070189","260645.76423109","No","(1) Kiosco con B.A.D. y Comida","Privado","Rural","ISRAEL RUIZ ROSARIO","(18.3797760009765, -67.1887741088867)","18.379776000976499","-67.188774108886705"
"2014-308344-PUS-10744","Permiso de Uso Certificado","2014-12-19T09:01:00.000","2014","2014.12","335-037-034-01","Sabana Grande","Ave. Greorio Martinez, 0, Plaza Publica Busigo, Barrio Pueblo, Sabana Grande","Aguadilla","Expedido","Adjudicado","2014-12-19T00:00:00.000","PUS-CERT","144248.664768199","227321.33973532001","No","1 KIOSKO BEBIDAS PLAZA PUBLICA BUSIGO","Privado","Urbano","RAFAEL  NAZARIO ","(18.0794582366943, -66.9599990844726)","18.0794582366943","-66.959999084472599"
"2014-308344-PUS-10743","Permiso de Uso Certificado","2014-12-19T08:56:00.000","2014","2014.12","335-037-034-01","Sabana Grande","Ave. Greorio Martinez, 0, Plaza Publica Busigo, Barrio Pueblo, Sabana Grande","Aguadilla","Expedido","Adjudicado","2014-12-19T00:00:00.000","PUS-CERT","144248.664768199","227321.33973532001","No","1 KIOSKO BEBIDAS PLAZA PUBLICA BUSIGO","Privado","Urbano","RAFAEL  NAZARIO ","(18.0794582366943, -66.9599990844726)","18.0794582366943","-66.959999084472599"
