"caso","tr_mite","fecha_de_radicaci_n","a_o_de_radicaci_n","mes_de_radicaci_n","catastro","municipio","direcci_n","regi_n","status","adjudicado_o_pendiente","fecha_de_adjudicaci_n","siglas","x","y","radicado_por_pa","nombre_del_proyecto","publico_o_privado","rural_o_urbano","due_o_del_proyecto","location_1","lat","lon"
"2013-117780-CCA-07161","Cambio de Calificacion","2015-11-01T18:39:00.000","2015","2015.11","251-003-391-14","Caguas","Calle 1, B-14, Urb. Villa Del Rey, Turabo, Caguas","Humacao","Validación","Pendiente",,"CCA","240978.48705127","242120.12147164001","No","Cambio Calificación CARAPEVA Caguas","Privado","Urbano","ENRIQUE PÉREZ VÁZQUEZ","(18.2134950668908, -66.0459301080845)","18.2134950668908","-66.045930108084505"
"2013-122366-DEC-60934","Exclusion Categorica","2015-10-02T01:33:00.000","2015","2015.1","040-059-104-10","San Juan","Calle Robert L-1355, Pda 19, Santurce, Santurce, San Juan","Central","Expedido","Adjudicado","2015-10-06T00:00:00.000","DEC","238367.86803148","268346.20601596002","No","ORALE GUEY, CORP","Privado","Urbano","LUZ ORTIZ PASTRANA","(18.4504881885371, -66.0701130126928)","18.450488188537101","-66.070113012692801"
"2013-171823-CUB-60729","Consulta de Ubicacion","2015-09-12T12:00:00.000","2015","2015.09","140-000-006-68","Corozal","Carretera Estatal Pr-803, Km. 1.1 (Interior), /, Palos Blancos, Corozal","Central","Archivado","Adjudicado","2015-09-18T00:00:00.000","CUB","213444.258712879","253456.47916454001","No","Sucn. de Antonio Padilla Vázquez","Privado","Rural","SUCN. DE ANTONIO  PADILLA VÁZQUEZ ","(18.3162633267014, -66.3061600746026)","18.316263326701399","-66.306160074602602"
"2012-044860-AEX-06881","Aviso de Excavacion","2015-08-20T14:07:00.000","2015","2015.08","063-018-801-10","Carolina","Carr Pr26 , K 8.2 , Laguna Plaza Shopping , Cangrejo Arriba, Carolina","Central","Cancelado","Adjudicado","2015-09-20T00:00:00.000","AEX","244064.71257388001","266243.83758425899","No","LAGUNA PLAZA SHOPPING","Privado","Urbano","ABRAHM  ROSA  CAMACHO","(18.431387826598, -66.0162264299808)","18.431387826598002","-66.016226429980804"
"2012-027882-PRA-36880","Rotulos y anuncios","2015-07-08T16:40:00.000","2015","2015.07","089-086-026-09","Canóvanas","Calle Autonomia, Canovanas, 68 Esquina Munoz Rivera, Canóvanas, Canóvanas","Central","Cancelado","Adjudicado","2015-08-13T00:00:00.000","PRA","256180.24324725001","260396.23212212001","No","Island Finance","Privado","Rural","RODOLFO RIVERA ","(18.3782697830264, -65.9017105257379)","18.378269783026401","-65.901710525737897"
"2012-011687-PRA-36840","Rotulos y anuncios","2015-06-25T18:03:00.000","2015","2015.06","011-023-136-24","Hatillo","Carr #2, Km 84.8, Carizalez, Carrizales, Hatillo","Arecibo","Expedido","Adjudicado","2015-08-17T00:00:00.000","PRA","161555.34116919001","272576.849139439","No","Hatillo - 416","Privado","Urbano","MANUEL  MIRANDA ","(18.4887119560413, -66.7973622162524)","18.4887119560413","-66.797362216252395"
"2013-148300-CUB-60148","Consulta de Ubicacion","2015-06-23T09:42:00.000","2015","2015.06","219-080-206-32","Orocovis","Carretera Pr 156, 2.6, Orocovis, Orocovis, Orocovis","Ponce","Cancelado","Adjudicado","2015-07-30T00:00:00.000","CUB","206137.76681967001","243466.250427919","No","SUCN. PEREZ JIMENEZ","Privado","Rural","SUCN. PEREZ JIMENEZ 00720","(18.2260388457271, -66.3753009814342)","18.2260388457271","-66.375300981434194"
"2012-007391-PRA-36760","Rotulos y anuncios","2015-06-08T15:55:00.000","2015","2015.06","042-250-741-90","Caguas","Ave. Gautier Benitez, #85, Ave. Autier Benitez, Barrio Pueblo, Caguas","Humacao","Expedido","Adjudicado","2015-06-17T00:00:00.000","PRA",,,"No","Banco Santander","Privado","Rural","RODOLFO RIVERA ",,,
"2011-058321-CUB-59994","Consulta de Ubicacion","2015-06-05T14:08:00.000","2015","2015.06","129-049-481-04","San Sebastián","Carr. P.R. 111, Km. 24.0 Int., Cidral, Piedras Blancas, San Sebastián","Aguadilla","Cancelado","Adjudicado","2015-07-10T00:00:00.000","CUB",,,"No","16 Solares, Miguel A. Torres","Privado","Rural","MIGUEL TORRES ",,,
"2013-153300-CUB-59990","Consulta de Ubicacion","2015-06-04T16:40:00.000","2015","2015.06","096-010-209-70","Aguada","Carrtera Pr-411, Km. 1.1,  Piedras Blancas Car Wash, Piedras Blancas, Aguada","Aguadilla","Evaluación","Pendiente",,"CUB","119720.7616171","259719.980046379","No","Segregacion de un solar","Privado","Rural","ANDRES GONZALEZ TRAVERSO","(18.3713947137508, -67.192972557958)","18.371394713750799","-67.192972557958001"
"2013-156352-PRA-36722","Rotulos y anuncios","2015-06-03T10:49:00.000","2015","2015.06","207-025-922-29","Mayagüez","Carretera Pr # 2, Km 149.9, N/A, Algarrobos, Mayagüez","Aguadilla","Expedido","Adjudicado","2015-08-13T00:00:00.000","PRA","123020.74745192","245062.95838612001","No","XL MAYAGUEZ DIGITAL BILLBOARD 515 ","Privado","Urbano","RAMÓN MONTALVO 00909","(18.2390940774843, -67.1611954082138)","18.2390940774843","-67.1611954082138"
"2012-030366-PRA-36721","Rotulos y anuncios","2015-06-03T10:46:00.000","2015","2015.06","089-079-299-02","Canóvanas","Carr Pr#3 Int 188, ., Quebrada, Canóvanas, Canóvanas","Central","Expedido","Adjudicado","2015-07-15T00:00:00.000","PRA","257853.87225359","260653.56806352001","No","San Isidro 314","Privado","Urbano","MANUEL MIRANDA ","(18.3805561618502, -65.8858625119304)","18.380556161850201","-65.885862511930398"
"2013-144665-PRA-36720","Rotulos y anuncios","2015-06-03T10:42:00.000","2015","2015.06","283-049-006-91","Hormigueros","Pr # 2, Km 162.1, N/A, Guanajibo, Hormigueros","Aguadilla","Expedido","Adjudicado","2015-08-13T00:00:00.000","PRA","125500.393823709","233917.50944174","No","Faces (Mayaguez II)","Privado","Urbano","RAMÓN MONTALVO ","(18.1400102507192, -67.1362889995937)","18.1400102507192","-67.136288999593702"
"2013-215812-PRA-36701","Rotulos y anuncios","2015-06-02T16:52:00.000","2015","2015.06","256-012-066-06","Naguabo","Carr 31, 3.9, Barrio Pueblo, Barrio Pueblo, Naguabo","Humacao","Cancelado","Adjudicado","2015-07-06T00:00:00.000","PRA","273433.09391065","242193.12726614001","No","Toyota de Naguabo","Privado","Urbano","MARIELA PALACIOS ","(18.213288605416, -65.7391024191026)","18.213288605416","-65.739102419102593"
"2012-102506-CUB-59928","Consulta de Ubicacion","2015-06-02T15:26:00.000","2015","2015.06","129-000-004-18","San Sebastián","Pr 111, 26.0 Interior, Piedras Blancas, Piedras Blancas, San Sebastián","Aguadilla","Expedido","Adjudicado","2016-02-11T00:00:00.000","CUB","144879.04508799","255402.369891259","No","SEGREGACION EDWIN SOTO GONZALEZ","Privado","Rural","EDWIN  SOTO GONZALEZ","(18.3331780683837, -66.9548004649973)","18.333178068383699","-66.954800464997305"
"2013-142960-REC-37001","Solicitud de Recomendaciones","2015-05-11T21:13:00.000","2015","2015.05","130-008-286-18","Lares","Carrtera Estatal Pr-453, Km.7.2, Sector Borges, Piletas, Lares","Arecibo","Cancelado","Adjudicado","2015-06-12T00:00:00.000","REC","152124.3128598","256321.52837886001","No","Ramon A. Negron Huertas","Privado","Rural","RAMÓN NEGRÓN HUERTAS","(18.3416641611748, -66.8862816404814)","18.341664161174801","-66.8862816404814"
"2013-182180-CUB-59688","Consulta de Ubicacion","2015-05-08T09:48:00.000","2015","2015.05","410-026-002-30","Peñuelas","Camino Municipal, Solar #18, El Boquete, Encarnación, Peñuelas","Ponce","Evaluación","Pendiente",,"CUB","170202.73700212","217246.393626359","No","Cafeteria ","Privado","Rural","JIMMY BORRERO COSTAS","(17.9889444260535, -66.7146710558155)","17.9889444260535","-66.714671055815501"
"2013-142863-PRA-36663","Rotulos y anuncios","2015-05-06T10:25:00.000","2015","2015.05","371-000-006-02","Salinas","Carr. 1, Km 81.2, Sect. Rabo Del Buey, Lapa, Salinas","Humacao","Expedido","Adjudicado","2015-06-09T00:00:00.000","PRA","220448.707151729","222535.474118479","No","San Juan Oil 153","Privado","Urbano","RAMON MONTALVO ","(18.0368399217033, -66.2402049374714)","18.036839921703301","-66.240204937471404"
"2012-015768-PRA-36662","Rotulos y anuncios","2015-05-06T10:22:00.000","2015","2015.05","225-019-378-05","Gurabo","Frente Universidad Turabo, Km. 3.3, Carr. 189, Rincón, Gurabo","Humacao","Expedido","Adjudicado","2015-05-12T00:00:00.000","PRA","244940.125361579","245597.79446005001","No","Vilar Trucking 514","Privado","Urbano","MANUEL  MIRANDA ","(18.2448388496637, -66.0083974568691)","18.244838849663701","-66.008397456869105"
"2013-144661-PRA-36661","Rotulos y anuncios","2015-05-06T10:20:00.000","2015","2015.05","045-076-199-10","Aguadilla","Carretera Pr # 2, Km 129.3, N/A, Victoria, Aguadilla","Aguadilla","Expedido","Adjudicado","2015-08-14T00:00:00.000","PRA","124098.856379549","264182.45638634899","No","Aguadilla Medical # 326 Digital Billboard","Privado","Urbano","RAMÓN MONTALVO 00909","(18.4118667377018, -67.1517118496842)","18.4118667377018","-67.151711849684204"
"2012-008186-PRA-36660","Rotulos y anuncios","2015-05-06T10:11:00.000","2015","2015.05","233-016-576-62","Mayagüez","Carr. Pr 2,  Km 152.8, Sec. Algarrobo , Barrio Pueblo, Mayagüez","Aguadilla","Expedido","Adjudicado","2015-08-14T00:00:00.000","PRA","124198.38809588","242247.02346528001","No","University Plaza -303","Privado","Urbano","MANUEL MIRANDA ","(18.213694032185, -67.1499623957439)","18.213694032185","-67.149962395743898"
"2011-030277-API-82692","Planos de Inscripción","2015-05-05T21:07:00.000","2015","2015.05","358-021-095-01","Lajas","# 43 Pr-1101, Calle San Blas, La Haya , Lajas, Lajas","Aguadilla","Expedido","Adjudicado","2015-08-05T00:00:00.000","API","133646.65903519001","224451.82465376001","No","Lajas NSP Residencial de Vivienda de Interes Socia","Público","Urbano","FRANCISCO  GARCIA KREIDLER","(18.0532315314715, -67.0600569025773)","18.0532315314715","-67.060056902577301"
"2011-036176-ARC-20581","Rectificacion de Cabida","2015-05-04T11:05:00.000","2015","2015.05","230-000-004-33","Naguabo","Carr. 973, Km. 3.1, Mariana, Mariana, Naguabo","Humacao","En Subsanación","Pendiente","2015-06-06T00:00:00.000","ARC","276447.103547059","245018.11180457001","No","SEGREGACION DE DOS SOLARES","Privado","Rural","VICTOR LOPEZ ","(18.2387065511636, -65.7105031226847)","18.238706551163599","-65.710503122684699"
"2013-122379-REC-36901","Solicitud de Recomendaciones","2015-05-01T10:45:00.000","2015","2015.05","333-015-090-38","San Germán","Pr - 102, 25.5, Los Toros, Sabana Eneas, San Germán","Aguadilla","Cancelado","Adjudicado","2015-06-12T00:00:00.000","REC","129776.71362826","228092.77198993001","No","Segregacion","Privado","Rural","ENRIQUE TORO ","(18.0860045096594, -67.0967344662473)","18.0860045096594","-67.096734466247298"
"2012-063361-REC-36863","Solicitud de Recomendaciones","2015-04-30T11:34:00.000","2015","2015.04","097-016-008-07","Aguada","N/A 417, 3.3, Luyando, Guanábano, Aguada","Aguadilla","Cancelado","Adjudicado","2015-06-12T00:00:00.000","REC","123858.51788486","259256.754696599","No","Sistema Sanitario Comunidad Luyando","Público","Rural","RAMON BAEZ GONZALEZ","(18.3673627676521, -67.1537999528097)","18.3673627676521","-67.153799952809706"
"2013-193268-REC-36801","Solicitud de Recomendaciones","2015-04-29T16:59:00.000","2015","2015.04","014-000-010-01","Barceloneta","Pr-681 , Km. 16.0, Isla De Roque, Palmas Altas, Barceloneta","Arecibo","En Subsanación","Pendiente",,"REC","185985.633243719","271766.102631299","No","Urb. Isla de Roque Estates","Privado","Urbano","CARLOS  BARENS PEREZ","(18.4816843140624, -66.5660239996423)","18.481684314062399","-66.566023999642297"
"2012-022267-REC-36761","Solicitud de Recomendaciones","2015-04-29T15:23:00.000","2015","2015.04","280-000-007-16","Humacao","Carr 198 , Km 25.1, Sector La Fermina, Mabú, Humacao","Humacao","Cancelado","Adjudicado","2015-06-12T00:00:00.000","REC","261219.897102499","237034.60406109001","No","Segregacion 4 lotes y Rem Israel Diaz Garcia","Privado","Rural","ISRAEL DIAZ GARCIA","(18.1670703724742, -65.8547165807382)","18.1670703724742","-65.854716580738199"
"2013-198856-PRA-36640","Rotulos y anuncios","2015-04-28T15:48:00.000","2015","2015.04","299-000-009-11","Cayey","Carr. 735, 2.7, Monte Llano, Monte Llano, Cayey","Humacao","Cancelado","Adjudicado","2015-07-10T00:00:00.000","PRA","231319.81481271001","232252.11640324901","No","PepeAbad","Privado","Rural","JOSE ABAD ","(18.1245014976575, -66.1373867718161)","18.124501497657501","-66.137386771816097"
"2012-076342-REC-36721","Solicitud de Recomendaciones","2015-04-28T11:47:00.000","2015","2015.04","041-077-016-22","Carolina","Calle Tartak, 0, Isla Verde, Cangrejo Arriba, Carolina","Central","Expedido","Adjudicado","2015-06-05T00:00:00.000","REC","243482.78558093001","267406.68010890001","No","PREPA NIWT BUILDING","Privado","Urbano","JOSE CASILLAS APONTE","(18.4419069511302, -66.0217107140797)","18.4419069511302","-66.021710714079703"
"2013-190382-REC-36701","Solicitud de Recomendaciones","2015-04-27T21:21:00.000","2015","2015.04","119-000-007-58","Río Grande","Carr 967, Km 3.0, Sector 3t, Zarzal, Río Grande","Central","Cancelado","Adjudicado","2015-06-12T00:00:00.000","REC","267206.948223849","257552.48232648001","No","SUCESION DELGADO CRUZ","Privado","Rural","SUCESION DELGADO CRUZ","(18.3522576039419, -65.7974579215193)","18.352257603941901","-65.797457921519296"
"2012-062021-REC-36621","Solicitud de Recomendaciones","2015-04-25T15:00:00.000","2015","2015.04","113-000-005-29","Guaynabo","Ave. Las Cumbres #199, Km. 65, Canta Gallo, Santa Rosa, Guaynabo","Central","Pendiente de Pago","Pendiente",,"REC","231888.27016469001","259286.30061887999","No","Ave. Conector Los Filtros","Público","Urbano","ERNESTO SANTIAGO ","(18.36834958, -66.13092411)","18.36834958","-66.130924109999995"
"2013-172045-REC-36601","Solicitud de Recomendaciones","2015-04-24T11:17:00.000","2015","2015.04","011-000-007-09","Hatillo","Carr Pr-2, Km 84.2, Bo Carrizales, Carrizales, Hatillo","Arecibo","Expedido","Adjudicado","2015-06-10T00:00:00.000","REC","162047.17315946001","271799.641955839","No","FACILIDAD DE TELECOMUNICACIONES CARRIZALES","Privado","Rural","MANUEL AVILES AVILES","(18.4817009156079, -66.7926891295769)","18.481700915607899","-66.7926891295769"
"2012-012427-API-82672","Planos de Inscripción","2015-04-21T11:50:00.000","2015","2015.04","198-077-441-02","Aguas Buenas","Pr Num.156, 53.0, Sector El Perico, Bairoa, Aguas Buenas","Humacao","Cancelado","Adjudicado","2015-05-25T00:00:00.000","API","236711.97929978001","246793.11007933001","No","Segregacion de un solar prop.del sr.Faustino rios","Privado","Urbano","FAUSTINO RIOS NEGRON","(18.2557921831693, -66.0861767268767)","18.255792183169302","-66.086176726876701"
"2013-163622-PRA-36620","Rotulos y anuncios","2015-04-20T17:37:00.000","2015","2015.04","007-078-413-99","Isabela","Carretera  Pr2, Km. 110.6, Bo. Pueblo, Mora, Isabela","Aguadilla","Expedido","Adjudicado","2015-10-19T00:00:00.000","PRA","138736.06519666","271254.28268502001","No","13-D03 Billboard Isabela","Privado","Urbano","HÉCTOR HORTA  SANTINI","(18.4762278626498, -67.0133904199233)","18.4762278626498","-67.013390419923297"
"2012-031342-PRA-36606","Rotulos y anuncios","2015-04-15T11:33:00.000","2015","2015.04","091-091-213-03","Río Grande",". Carr 955, 4.5, ., Zarzal, Río Grande","Central","Cancelado","Adjudicado","2015-05-24T00:00:00.000","PRA","266214.05783419003","260092.0035966","No","PERMISO DE CONSTRUCCION ANUNCIO","Privado","Urbano","RUBEN GARCIA ","(18.3752365112304, -65.806770324707)","18.375236511230401","-65.806770324707003"
"2013-166400-PRA-36604","Rotulos y anuncios","2015-04-14T21:08:00.000","2015","2015.04","058-021-519-33","Vega Baja","Expreso 22 Y Pr 160, Km. 36.0, Almirante Norte, Almirante Norte, Vega Baja","Arecibo","Expedido","Adjudicado","2015-04-24T00:00:00.000","PRA","206294.655739829","265936.97949051001","No","13-D03- Billboard Vega Baja ","Privado","Urbano","HÉCTOR HORTA  SANTINI","(18.4290580749511, -66.3737487792968)","18.429058074951101","-66.373748779296804"
"2013-181001-PRA-36603","Rotulos y anuncios","2015-04-14T20:40:00.000","2015","2015.04","324-037-371-31","Cayey","Carretera  Pr 1, Km 57.5, Sector Pepe Hoyos , Monte Llano, Cayey","Humacao","Expedido","Adjudicado","2015-04-16T00:00:00.000","PRA","230632.774428159","230803.037521349","No","13-D03 Billboard Cayey","Privado","Urbano","HÉCTOR HORTA  SANTINI","(18.1114196777343, -66.1439056396484)","18.1114196777343","-66.143905639648395"
"2013-175322-PRA-36601","Rotulos y anuncios","2015-04-14T19:36:00.000","2015","2015.04","233-037-204-07","Mayagüez","Calle José De Diego, 116 Oeste, Ensache Martínez, Barrio Pueblo, Mayagüez","Aguadilla","Expedido","Adjudicado","2015-10-19T00:00:00.000","PRA","124652.26652351","241291.24483143","No","13-D03 Billboard Mayaguez","Privado","Urbano","HÉCTOR HORTA  SANTINI","(18.2050743103027, -67.1456298828125)","18.205074310302699","-67.1456298828125"
"2013-116423-ARC-20562","Rectificacion de Cabida","2015-04-14T14:42:00.000","2015","2015.04","115-088-160-09","Trujillo Alto","Camino Tomas Morales, Carr 845 Int. 175, Los Morales, Carraízo, Trujillo Alto","Central","Expedido","Adjudicado","2015-04-27T00:00:00.000","ARC","244285.093127809","256909.96358901","No","solar Adelaida Morales Morales","Privado","Rural","ADELAIDA MORALES MORALES","(18.347053527832, -66.0143432617187)","18.347053527831999","-66.014343261718693"
"2013-201472-REC-36561","Solicitud de Recomendaciones","2015-04-13T13:59:00.000","2015","2015.04","087-018-017-09","San Juan","Calle #8, 154a, Comunidad Hill Brothers, Sabana Llana Norte, San Juan","Central","Evaluación","Pendiente",,"REC","244126.919167599","262605.79075043899","No","Remodelación Residencia Mutifamiliar (Hospedaje)","Privado","Urbano","ILEANA PEÑA ","(18.3985157012939, -66.0156478881835)","18.398515701293899","-66.015647888183494"
"2011-027650-API-82651","Planos de Inscripción","2015-04-13T11:48:00.000","2015","2015.04","064-391-000-07","Juana Díaz","Carretera 149, 72.9, Urb. Camino Real, Cintrona, Juana Díaz","Ponce","Expedido","Adjudicado","2015-04-28T00:00:00.000","API",,,"No","Urb. Camino Real","Privado","Urbano","RICARDO RUBI ",,,
"2012-072942-CUB-59372","Consulta de Ubicacion","2015-04-09T09:49:00.000","2015","2015.04","366-000-010-32","Juana Díaz","Carretera Pr-510, -, -, Amuelas, Juana Díaz","Ponce","Validación","Pendiente",,"CUB","192992.905301149","221898.69277503001","No","LA LOMA","Privado","Urbano","JOSÉ BONNIN ","(18.0311775207519, -66.49951171875)","18.0311775207519","-66.49951171875"
"2012-072221-PRA-36582","Rotulos y anuncios","2015-04-07T16:34:00.000","2015","2015.04","216-000-008-02","Jayuya","Carr. 144 Int. Ramal Carr. 141, 0, Jayuya Abajo, Río Grande, Jayuya","Ponce","Expedido","Adjudicado","2015-05-14T00:00:00.000","PRA","183561.204577989","243859.907568439","No","Permiso de Rotulo Burger King, Rest. (Rest.#15216)","Privado","Urbano","MERCEDES VEGA ","(18.229543685913, -66.5887603759765)","18.229543685913001","-66.588760375976506"
"2011-798233-PRA-36580","Rotulos y anuncios","2015-04-07T15:38:00.000","2015","2015.04","138-000-008-03","Morovis","Carr. 155, 0.1, Morovis Sur, Morovis Sud, Morovis","Arecibo","Expedido","Adjudicado","2015-06-04T00:00:00.000","PRA","204066.704175149","256137.04778609","No","Permiso Rotulo Burger King, Rest.12354 Morovis","Privado","Rural","MERCEDES VEGA ","(18.3405246734619, -66.3948593139648)","18.3405246734619","-66.394859313964801"
"2011-798228-PRA-36547","Rotulos y anuncios","2015-04-01T15:59:00.000","2015","2015.04","090-086-345-01","Río Grande","Carr. Pr #3, 23.5, Cienaga Baja, Ciénaga Baja, Río Grande","Central","Expedido","Adjudicado","2015-04-13T00:00:00.000","PRA","262723.30499710899","260403.496873959","No","Permiso Rotulo Burger King, Rest. 5254 Rio Grande","Privado","Rural","MERCEDES VEGA ","(18.3781566619873, -65.8397903442382)","18.378156661987301","-65.839790344238196"
"2011-798334-PRA-36546","Rotulos y anuncios","2015-04-01T14:54:00.000","2015","2015.04","008-050-001-08","Quebradillas","Carr. 2, Km 102.20, Bo Terranova, Terranova, Quebradillas","Aguadilla","Expedido","Adjudicado","2015-04-15T00:00:00.000","PRA","146422.39908736901","272004.39927320898","No","Freddy Auto","Privado","Urbano","MANUEL  MIRANDA ","(18.4832134246826, -66.9406356811523)","18.483213424682599","-66.940635681152301"
"2012-026041-PRA-36545","Rotulos y anuncios","2015-04-01T14:51:00.000","2015","2015.04","417-000-002-22","Salinas","Pr #1, Km 9.0, Bo Cano Verde, Río Jueyes, Salinas","Humacao","Expedido","Adjudicado","2015-04-16T00:00:00.000","PRA","214551.256571759","217305.43359065001","No","Salinas REady Mix","Privado","Urbano","MANUEL  MIRANDA ","(17.9896392822265, -66.2959442138671)","17.989639282226499","-66.295944213867102"
"2011-789596-PRA-36543","Rotulos y anuncios","2015-04-01T11:00:00.000","2015","2015.04","233-047-287-13","Mayagüez","Calle Carmelo Martinez, #86, Bo Dulces Labios, Barrio Pueblo, Mayagüez","Aguadilla","Expedido","Adjudicado","2015-05-14T00:00:00.000","PRA","124408.4793791","240962.73981669001","No","Dulces Labios-345","Privado","Urbano","MANUEL  MIRANDA ","(18.2020988464355, -67.1479263305664)","18.202098846435501","-67.147926330566406"
"2012-077108-PRA-36542","Rotulos y anuncios","2015-04-01T10:39:00.000","2015","2015.04","007-096-006-71","Isabela","Carr. Pr-2, Km 112.0, Ave. Militar, Guerrero, Isabela","Aguadilla","Expedido","Adjudicado","2015-05-14T00:00:00.000","PRA","137417.76958781001","270487.69542936899","No","Plaza Isabela 361","Privado","Urbano","RAMON MONTALVO ","(18.4692668914794, -67.0258483886718)","18.4692668914794","-67.025848388671804"
"2013-144600-PRA-36541","Rotulos y anuncios","2015-04-01T10:33:00.000","2015","2015.04","090-000-006-35","Canóvanas","Pr # 3, Km 19.9, Sector  Pueblo, Canóvanas, Canóvanas","Central","Expedido","Adjudicado","2015-04-06T00:00:00.000","PRA","259729.68794435001","260335.82865441","No","Zizelman 326 Digital Billboard","Privado","Urbano","RAMÓN MONTALVO 00909","(18.3776302337646, -65.8681259155273)","18.377630233764599","-65.868125915527301"
"2011-798316-PRA-36540","Rotulos y anuncios","2015-04-01T10:30:00.000","2015","2015.04","392-059-288-05","Santa Isabel","Carr. 153, Km 6.9, Sec. Palo Seco, Jauca I, Santa Isabel","Ponce","Expedido","Adjudicado","2015-04-24T00:00:00.000","PRA","205070.955586419","219877.634683499","No","plaza oasis-246","Privado","Urbano","MANUEL  MIRANDA ","(18.0129222869873, -66.3854446411132)","18.012922286987301","-66.385444641113196"
"2012-101524-PRA-36520","Rotulos y anuncios","2015-03-30T10:34:00.000","2015","2015.03","358-041-049-20","Lajas","Calle 65 Inf., #34, Edificio Antonio Bayon, Barrio Pueblo, Lajas","Aguadilla","Cancelado","Adjudicado","2016-02-20T00:00:00.000","PRA","133692.57267282001","223796.798691309","No","Permiso Rotulo BPPR, Suc. Lajas","Privado","Rural","MERCEDES VEGA ","(18.0473136901855, -67.0596084594726)","18.047313690185501","-67.059608459472599"
"2011-036176-API-82531","Planos de Inscripción","2015-03-27T16:41:00.000","2015","2015.03","230-000-004-33","Naguabo","Carr. 973, Km. 3.1, Mariana, Mariana, Naguabo","Humacao","Expedido","Adjudicado","2015-04-01T00:00:00.000","API","276447.103547059","245018.11180457001","No","SEGREGACION DE DOS SOLARES","Privado","Rural","VICTOR LOPEZ ","(18.2387084960937, -65.7105026245117)","18.2387084960937","-65.710502624511705"
"2012-067240-PRA-36500","Rotulos y anuncios","2015-03-26T12:01:00.000","2015","2015.03","394-000-010-25","Salinas","Carr. 1, Km. 84.20, X, Lapa, Salinas","Humacao","Cancelado","Adjudicado","2015-05-21T00:00:00.000","PRA","219484.342622169","219516.35682216001","No","Renovacion - Potrero","Privado","Urbano","JESNEYLA REYES ","(18.0095748901367, -66.2493438720703)","18.009574890136701","-66.249343872070298"
"2011-798102-PRA-36481","Rotulos y anuncios","2015-03-25T09:58:00.000","2015","2015.03","233-047-305-09","Mayagüez","Calle Virginia, #69, Bo Cristy, Barrio Pueblo, Mayagüez","Aguadilla","Expedido","Adjudicado","2015-05-05T00:00:00.000","PRA","124489.44932362001","240960.705298699","No","Mayaguez Cristy- 424","Privado","Urbano","MANUEL  MIRANDA ","(18.2020835876464, -67.1471633911132)","18.202083587646399","-67.147163391113196"
"2013-143841-PRA-36480","Rotulos y anuncios","2015-03-25T09:55:00.000","2015","2015.03","011-000-001-93","Hatillo","Carr. Pr-2, Km 85.2, Carizales, Carrizales, Hatillo","Arecibo","Expedido","Adjudicado","2015-03-30T00:00:00.000","PRA","161143.99158540001","272454.83947344002","No","CAsa Febus 362","Privado","Rural","RAMON MONTALVO ","(18.487600326538, -66.8012542724609)","18.487600326538001","-66.801254272460895"
"2013-127920-API-82397","Planos de Inscripción","2015-03-24T22:47:00.000","2015","2015.03","154-013-006-50","Añasco","402, 5.0 Int., Piñales, Piñales, Añasco","Aguadilla","Expedido","Adjudicado","2015-03-25T00:00:00.000","API","122219.28877026","252406.12103313001","No","Segregacion de Solares Miguel Rosado","Privado","Rural","MIGUEL ROSADO CARRERO","(18.3054084777832, -67.1690521240234)","18.3054084777832","-67.169052124023395"
"2012-076408-API-82394","Planos de Inscripción","2015-03-24T16:29:00.000","2015","2015.03","110-000-008-97","Corozal","Carr. Num. 818, Km. 3.0 Int., Los Puertos, Cibuco, Corozal","Central","Expedido","Adjudicado","2015-04-06T00:00:00.000","API","209557.799788359","257059.608564619","No","Hector De Leon Maldonado","Privado","Rural","HECTOR DE LEON MALDONADO","(18.3488426208496, -66.342903137207)","18.348842620849599","-66.342903137207003"
"2013-227727-API-82393","Planos de Inscripción","2015-03-24T11:48:00.000","2015","2015.03","016-091-520-20","Manatí","Carr. Ramal Pr-6684, Km. 5.2 Interior, Sector Shangay, Tierras Nuevas Poniente, Manatí","Arecibo","Expedido","Adjudicado","2015-03-26T00:00:00.000","API","193364.28086306","270156.30743294","No","Gloria Maldonado Rodríguez","Privado","Rural","GLORIA MALDONADO RODRÍGUEZ","(18.4671764373779, -66.4961547851562)","18.467176437377901","-66.496154785156193"
"2013-198010-CUB-59210","Consulta de Ubicacion","2015-03-23T12:33:00.000","2015","2015.03","098-011-278-12","Moca","Carrtera Pr-110, Km. 9.7, Sector Los Mendez, Marías, Moca","Aguadilla","Expedido","Adjudicado","2015-12-11T00:00:00.000","CUB","127242.33622079001","259466.65223373901","No","Segrgacion de tres solares","Privado","Rural","ALEJANDRO HERNADEZ MENDEZ","(18.3693752288818, -67.1217956542968)","18.3693752288818","-67.121795654296804"
"2011-033583-API-82372","Planos de Inscripción","2015-03-23T11:05:00.000","2015","2015.03","012-084-000-02","Toa Alta","Carretera #2, 18.6, Las Cascadas, Mucarabones, Toa Alta","Central","Expedido","Adjudicado","2015-04-13T00:00:00.000","API",,,"No","Las Cascadas II","Privado","Urbano","CLEOFE RUBÍ ",,,
"2012-106162-API-82351","Planos de Inscripción","2015-03-21T14:12:00.000","2015","2015.03","394-079-217-01","Salinas","Calle Santiago Iglesias, Num. 368-A, Coco Nuevo, Lapa, Salinas","Humacao","Cancelado","Adjudicado","2015-04-25T00:00:00.000","API","218731.02228507001","218977.37096802","No","Permiso de inscripcion de 1 solar Luis A Diaz","Privado","Rural","LUIS DIAZ RAMOS","(18.0047130584716, -66.2564620971679)","18.004713058471602","-66.256462097167898"
"2013-213293-API-82333","Planos de Inscripción","2015-03-20T14:20:00.000","2015","2015.03","128-057-512-19","San Sebastián","497, 2.0, Pozas, Pozas, San Sebastián","Aguadilla","Expedido","Adjudicado","2015-03-24T00:00:00.000","API","138066.79127565","254541.22145631001","No","1373-014Segregacion Teodora Torres","Privado","Rural","TEODORA TORRES RIVERA","(18.3252143859863, -67.0192184448242)","18.3252143859863","-67.019218444824205"
"2013-169703-CUB-59191","Consulta de Ubicacion","2015-03-20T11:07:00.000","2015","2015.03","226-000-007-74","Gurabo","Carr. Pr-9, Km. 2.2 Int., Sector Pedro Cruz, Rincón, Gurabo","Humacao","Evaluación","Pendiente",,"CUB","248494.527186369","243985.51129624","No","Segregacion 8 lotes Andrea Cruz Gomez","Privado","Rural","ANDREA CRUZ GOMEZ","(18.2301921844482, -65.9748229980468)","18.2301921844482","-65.974822998046804"
"2013-158821-API-82315","Planos de Inscripción","2015-03-19T09:32:00.000","2015","2015.03","279-087-264-51","Las Piedras","Carr. Est # 183, Km 17.3, Los Ramires, Montones, Las Piedras","Humacao","Expedido","Adjudicado","2015-03-25T00:00:00.000","API","256657.293402929","236043.42095636","No","Benito Torres Rosado- Lotificacion","Privado","Rural","BENITO TORRES 00771","(18.1582374572753, -65.8978652954101)","18.158237457275298","-65.897865295410099"
"2011-158342-API-82312","Planos de Inscripción","2015-03-19T08:46:00.000","2015","2015.03","125-000-001-16","Rincón","N/A 115, 11.6 Interior, N/A, Pueblo, Rincón","Aguadilla","Cancelado","Adjudicado","2015-07-05T00:00:00.000","API","114434.70696532","255584.38864143001","No","Villas de la Pradera, Inc.","Privado","Rural","BENJAMIN CARRERO MARTINEZ","(18.3338260650634, -67.242820739746)","18.333826065063398","-67.242820739745994"
"2012-073642-API-82294","Planos de Inscripción","2015-03-18T16:26:00.000","2015","2015.03","197-000-005-86","Aguas Buenas","Carr.174, 19.2, Los Sierra, Mula, Aguas Buenas","Humacao","Expedido","Adjudicado","2015-05-21T00:00:00.000","API","231845.64548516","247606.891127259","No","Juan A. Sierra Melendez","Privado","Rural","JUAN SIERRA  MELENDEZ","(18.2632236480712, -66.1321792602539)","18.2632236480712","-66.132179260253906"
"2013-161061-API-82292","Planos de Inscripción","2015-03-18T12:03:00.000","2015","2015.03","351-000-003-43","Yabucoa","Carr Pr-182, Km 13.6 Interior,  Sector La Herradura, Guayabota, Yabucoa","Humacao","Expedido","Adjudicado","2015-03-31T00:00:00.000","API","248701.87685124","228457.47598841001","No","Formación de Dos (2) Parcelas Residenciales","Privado","Rural","FLORA  GARCIA ","(18.0898933410644, -65.9732360839843)","18.0898933410644","-65.973236083984304"
"2013-220717-REC-36501","Solicitud de Recomendaciones","2015-03-18T11:00:00.000","2015","2015.03","247-000-005-23","Comerío","Carretera 156, 25.4, Sector La Guitarra, Río Hondo, Comerío","Humacao","Validación","Pendiente","2015-04-20T00:00:00.000","REC","218833.80280501","240866.65881836001","No","Orlando Ocasio Cruz","Privado","Rural","ORLANDO  OCASIO CRUZ","(18.2024803161621, -66.2552947998046)","18.202480316162099","-66.255294799804602"
"2012-068236-API-82278","Planos de Inscripción","2015-03-17T17:07:00.000","2015","2015.03","140-063-234-22","Corozal","Pr-164, 14, Palmarejo, Palmarejo, Corozal","Central","Cancelado","Adjudicado","2015-08-24T00:00:00.000","API","214629.957858429","253999.25991537","No","Consulta Ubicacion Marrero","Privado","Rural","ISRAEL ORTEGA  ORTIZ","(18.3211631774902, -66.294937133789)","18.321163177490199","-66.294937133789006"
"2011-546285-REC-36462","Solicitud de Recomendaciones","2015-03-16T18:45:00.000","2015","2015.03","233-077-453-19","Mayagüez","Conde, 21, Colombia, Barrio Pueblo, Mayagüez","Aguadilla","Expedido","Adjudicado","2015-05-12T00:00:00.000","REC","124497.39796565","240123.16136706001","No","4 Apartamentos Sra. Maria Cancel","Privado","Urbano","MARIA CANCEL CANCEL","(18.1945152282714, -67.1470565795898)","18.194515228271399","-67.147056579589801"
"2012-108349-REC-36461","Solicitud de Recomendaciones","2015-03-16T18:01:00.000","2015","2015.03","063-000-008-05","San Juan","Ave Pr 17 Int. Pr 8, 0, Antigua Villa Panamericana, Sabana Llana Norte, San Juan","Central","Expedido","Adjudicado","2015-03-19T00:00:00.000","REC","242745.862897299","264261.09711496002","No","The Mall of San Juan","Privado","Urbano","MARK BEDELL ","(18.4120254516601, -66.0254669189453)","18.412025451660099","-66.025466918945298"
"2013-151047-REC-36444","Solicitud de Recomendaciones","2015-03-16T14:06:00.000","2015","2015.03","137-045-037-06","Ciales","149, 14.4, La Loma, Jaguas, Ciales","Arecibo","Cancelado","Adjudicado","2015-04-19T00:00:00.000","REC","195975.39507602001","254624.951827779","No","Victor Torres - segregacion 2 predios","Privado","Rural","VICTOR TORRES PIÑEIRO","(18.326862335205, -66.4714050292968)","18.326862335205","-66.471405029296804"
"2013-191540-API-82231","Planos de Inscripción","2015-03-15T18:40:00.000","2015","2015.03","242-000-003-07","Jayuya","Calle Guillermo Esteves, Interior, Las Arenas, Veguitas, Jayuya","Ponce","Expedido","Adjudicado","2015-03-17T00:00:00.000","API","182594.27171012","241843.7882603","No","SEGREGACIONES IVAN MARIN","Privado","Rural","IVAN  MARIN  RIVERA","(18.2113208770751, -66.5978851318359)","18.211320877075099","-66.597885131835895"
"2013-221342-REC-36401","Solicitud de Recomendaciones","2015-03-14T18:28:00.000","2015","2015.03","173-000-003-53","Trujillo Alto","Carr. Est. 852, Km 4.3, Camino Los Ruiz, Quebrada Grande, Trujillo Alto","Central","Cancelado","Adjudicado","2015-04-17T00:00:00.000","REC","249184.346772299","252556.99991225","No","Segregacion Finca Carlos Mestre","Privado","Rural","CARLOS MESTRE ","(18.3076190948486, -65.9680938720703)","18.307619094848601","-65.968093872070298"
"2013-114003-CUB-59088","Consulta de Ubicacion","2015-03-14T15:17:00.000","2015","2015.03","155-095-131-55","Añasco","109, 9.6, Miraflores, Miraflores, Añasco","Aguadilla","Expedido","Adjudicado","2015-09-24T00:00:00.000","CUB","130045.70960385","249743.94653061","No","Segregacion de solar Bernalda Rivera","Privado","Rural","MAGDA MENDEZ ","(18.2816257476806, -67.0949325561523)","18.2816257476806","-67.094932556152301"
"2011-797137-REC-36395","Solicitud de Recomendaciones","2015-03-13T15:52:00.000","2015","2015.03","207-035-960-27","Mayagüez","2 , 149.9, X, Sabanetas, Mayagüez","Aguadilla","Expedido","Adjudicado","2015-03-20T00:00:00.000","REC","123227.46074961001","244847.99974678","No","Construcción de obras de urbanización ","Privado","Urbano","ELYNETTE  PÉREZ ","(18.2371597290039, -67.1592330932617)","18.237159729003899","-67.159233093261705"
"2012-069086-REC-36392","Solicitud de Recomendaciones","2015-03-13T14:43:00.000","2015","2015.03","280-072-121-81","Las Piedras","Carr 921, Km 2.8, Sector Tejas, Tejas, Las Piedras","Humacao","Expedido","Adjudicado","2015-04-07T00:00:00.000","REC","260140.07656106001","236350.1307786","No","IGLESIA ADVENTISTA DEL 7MO DIA (TEJAS)","Privado","Rural","SANTIAGO SOLANO ","(18.1609134674072, -65.8649444580078)","18.160913467407202","-65.864944458007798"
"2013-228903-REC-36386","Solicitud de Recomendaciones","2015-03-13T09:42:00.000","2015","2015.03","328-000-010-56","Yabucoa","Carr. Est # 905, Km. 3.8, Sector Francisco Santiago, Tejas, Yabucoa","Humacao","Cancelado","Adjudicado","2015-04-17T00:00:00.000","REC","258503.171465199","229749.789648609","No","Luz E. Perez Rodriguez- Lotificacion","Privado","Rural","LUZ E PEREZ ","(18.1013259887695, -65.8805999755859)","18.101325988769499","-65.880599975585895"
"2012-005700-REC-36383","Solicitud de Recomendaciones","2015-03-13T09:36:00.000","2015","2015.03","142-000-003-65","Bayamón","Carr 831, 6.2, Sector Pablo Silva, Minillas, Bayamón","Central","Cancelado","Adjudicado","2015-04-17T00:00:00.000","REC","228767.84333986","255286.21636296","No","Mansiones de Monte Frio","Privado","Rural","PEDRO RIVERA AMADOR","(18.3326473236083, -66.1611785888671)","18.332647323608299","-66.161178588867102"
"2011-350297-REC-36281","Solicitud de Recomendaciones","2015-03-12T15:13:00.000","2015","2015.03","150-000-020-58","Fajardo","Calle Igualdad Final, Sector Tiburcio, Quebrada Fajardo, Quebrada Fajardo, Fajardo","Central","Expedido","Adjudicado","2015-04-29T00:00:00.000","REC",,,"No","Iglesia Exodo","Privado","Rural","IGLESIA EXODO ",,,
"2013-114842-PRA-36441","Rotulos y anuncios","2015-03-12T12:33:00.000","2015","2015.03","366-025-017-05","Juana Díaz","Pr-14, Km. 129.2, Bo. Callabo, Callabo, Juana Díaz","Ponce","Expedido","Adjudicado","2015-03-20T00:00:00.000","PRA","189203.67956649","224353.32368326001","No","PUMA SS-167","Privado","Rural","CARLOS I FIGUEROA ","(18.0533390045166, -66.5353088378906)","18.053339004516602","-66.535308837890597"
"2012-016271-PRA-36440","Rotulos y anuncios","2015-03-12T12:08:00.000","2015","2015.03","106-010-027-06","Florida","Pr-140, Km 5.3, Florida, Florida Adentro, Florida","Arecibo","Expedido","Adjudicado","2015-04-15T00:00:00.000","PRA","186183.88231203001","259631.35386885001","No","PUMA SS-102","Privado","Urbano","CARLOS  FIGUEROA ","(18.3720531463623, -66.5640716552734)","18.372053146362301","-66.564071655273395"
"2013-198717-PCU-40562","Permiso de Urbanización","2015-03-12T09:06:00.000","2015","2015.03","139-095-177-39","Corozal","Carr. 568, Km 28.4 Int., El Jibaro, Padilla, Corozal","Central","Expedido","Adjudicado","2015-05-20T00:00:00.000","PCU","209313.455944619","253054.69543163001","No","Solares Jose Colon ","Privado","Rural","JOSE COLON RIVERA","(18.3126602172851, -66.3452377319335)","18.312660217285099","-66.345237731933494"
"2012-104149-API-82171","Planos de Inscripción","2015-03-12T08:53:00.000","2015","2015.03","120-000-006-29","Luquillo","Carr. #992, 4.0, Bo. Mata De Platano, Mata De Plátano, Luquillo","Central","Expedido","Adjudicado","2015-04-17T00:00:00.000","API","272760.34786360001","257742.6675786","No","SEGREGACION DE UN SOLAR","Privado","Rural","FRANCISCO VIDAL LEBRON ","(18.3537979125976, -65.7449111938476)","18.353797912597599","-65.744911193847599"
"2013-115821-PRA-36421","Rotulos y anuncios","2015-03-11T14:43:00.000","2015","2015.03","410-026-002-31","Peñuelas","Carr. #2, 215.20, X, Encarnación, Peñuelas","Ponce","Expedido","Adjudicado","2015-03-12T00:00:00.000","PRA","170161.75035473","217421.457252269","No","Renovacion - Damman","Privado","Urbano","JESNEYLA REYES ","(17.990530014038, -66.7150650024414)","17.990530014038001","-66.715065002441406"
"2012-007785-REC-36226","Solicitud de Recomendaciones","2015-03-11T11:52:00.000","2015","2015.03","332-068-012-20","Cabo Rojo","Carr. Núm 312, Km. 1.6, Sector La Quince, Monte Grande, Cabo Rojo","Aguadilla","Expedido","Adjudicado","2015-04-10T00:00:00.000","REC","125169.83295189","226401.04596192","No","Urbanización Los Corales","Privado","Urbano","JAIME SOLER ","(18.0705623626708, -67.1401977539062)","18.070562362670799","-67.140197753906193"
"2012-076281-PRA-36420","Rotulos y anuncios","2015-03-11T11:39:00.000","2015","2015.03","259-056-002-21","Mayagüez","Pr-2, Km 158, Guinajibo Castillo, Guanajibo, Mayagüez","Aguadilla","Expedido","Adjudicado","2015-03-18T00:00:00.000","PRA","124131.128266279","237220.334206189","No","Western Shopping 268","Privado","Urbano","RAMON MONTALVO ","(18.1682758331298, -67.150405883789)","18.168275833129801","-67.150405883789006"
"2011-031751-REC-36225","Solicitud de Recomendaciones","2015-03-11T11:25:00.000","2015","2015.03","308-084-351-03","Cabo Rojo","Carretera Pr-102, Calle La Familia Final, Km. 18.3, Sector Parabueyón, Miradero, Cabo Rojo","Aguadilla","Expedido","Adjudicado","2015-04-08T00:00:00.000","REC","122683.36262327","229374.38931771001","No","QMC-015 Miradero - Cabo Rojo Telecom Site","Privado","Rural","AXEL HERNÁNDEZ VÁZQUEZ","(18.0973377227783, -67.1637954711914)","18.097337722778299","-67.163795471191406"
"2013-147586-REC-36223","Solicitud de Recomendaciones","2015-03-11T10:57:00.000","2015","2015.03","056-012-003-25","Manatí","2, 49.4, Marginal, Barrio Pueblo, Manatí","Arecibo","Cancelado","Adjudicado","2015-04-12T00:00:00.000","REC","193724.74264149001","266131.272730269","No","Local Comercial","Privado","Urbano","CARMEN PARES ","(18.4311580657958, -66.4921340942382)","18.431158065795799","-66.492134094238196"
"2013-220595-REC-36222","Solicitud de Recomendaciones","2015-03-11T10:46:00.000","2015","2015.03","233-047-209-52","Mayagüez","Calle José De Diego , Núm. 66, Ensanche Martínez, Barrio Pueblo, Mayagüez","Aguadilla","Expedido","Adjudicado","2015-04-23T00:00:00.000","REC","124776.1375501","241187.87047565001","No","Edificio existente para establecer 13 apartamentos","Privado","Urbano","JOSÉ  CORDERO CRUZ ","(18.2041454315185, -67.1444549560546)","18.204145431518501","-67.144454956054602"
"2012-108349-REC-36210","Solicitud de Recomendaciones","2015-03-10T18:33:00.000","2015","2015.03","063-000-008-05","San Juan","Ave Pr 17 Int. Pr 8, 0, Antigua Villa Panamericana, Sabana Llana Norte, San Juan","Central","Expedido","Adjudicado","2015-03-17T00:00:00.000","REC","242745.862897299","264261.09711496002","No","The Mall of San Juan","Privado","Urbano","MARK BEDELL ","(18.4120254516601, -66.0254669189453)","18.412025451660099","-66.025466918945298"
"2013-148345-API-82093","Planos de Inscripción","2015-03-10T17:22:00.000","2015","2015.03","368-005-022-18","Coamo","Carr. Pr 14, 25.6 Interior, Sector Valle Verde, Los Llanos, Coamo","Ponce","Expedido","Adjudicado","2015-03-12T00:00:00.000","API","202545.30298594901","225050.65793715901","No","CARLOS GONZALEZ GONZALEZ","Privado","Rural","CARLOS GONZALEZ GONZALEZ","(18.0596656799316, -66.4092941284179)","18.059665679931602","-66.409294128417898"
"2012-108349-REC-36205","Solicitud de Recomendaciones","2015-03-10T16:52:00.000","2015","2015.03","063-000-008-05","San Juan","Ave Pr 17 Int. Pr 8, 0, Antigua Villa Panamericana, Sabana Llana Norte, San Juan","Central","Expedido","Adjudicado","2015-03-18T00:00:00.000","REC","242745.862897299","264261.09711496002","No","The Mall of San Juan","Privado","Urbano","MARK BEDELL ","(18.4120254516601, -66.0254669189453)","18.412025451660099","-66.025466918945298"
"2013-228107-PRA-36400","Rotulos y anuncios","2015-03-10T14:44:00.000","2015","2015.03","361-086-346-20","Yauco","Carr. 127, Km. 4.0, Bo. Jacana, Jácana, Yauco","Ponce","Expedido","Adjudicado","2015-04-24T00:00:00.000","PRA","157101.675385479","222100.87656691001","No","Ferr. Jacana","Privado","Rural","JENSYELA REYES ","(18.0325870513916, -66.8384704589843)","18.032587051391602","-66.838470458984304"
"2012-020110-API-82056","Planos de Inscripción","2015-03-10T13:45:00.000","2015","2015.03","173-000-004-66","Trujillo Alto","Carr. 8852, 2.2, Sector Sabana, Quebrada Grande, Trujillo Alto","Central","Expedido","Adjudicado","2015-03-11T00:00:00.000","API","250928.40173807001","251310.525019839","No","PLANO INSCRIPCION SUCN. LORENZO BETANCOURT","Privado","Rural","SUCN. LORENZO BETANCOURT ","(18.2963161468505, -65.9516296386718)","18.296316146850501","-65.951629638671804"
"2012-077162-REC-36170","Solicitud de Recomendaciones","2015-03-10T12:38:00.000","2015","2015.03","114-094-284-55","Guaynabo","Camino Piedras Blancas, 7.2, Piedras Blancas, Camarones, Guaynabo","Central","Expedido","Adjudicado","2015-03-27T00:00:00.000","REC","234996.19377819001","256603.43380483001","No","ALAMANDA","Privado","Urbano","JORGE GUERRERO ","(18.3444557189941, -66.1022338867187)","18.344455718994102","-66.102233886718693"
"2011-782935-API-82051","Planos de Inscripción","2015-03-10T10:58:00.000","2015","2015.03","196-000-008-29","Comerío","Carr. 7780, 2.7, Dona Elena Alto, Doña Elena, Comerío","Humacao","Cancelado","Adjudicado","2015-07-09T00:00:00.000","API","222756.531933249","247225.01339049","No","Iris Vargas Reguero","Privado","Rural","IRIS VARGAS ","(18.2598896026611, -66.2181396484375)","18.259889602661101","-66.2181396484375"
"2013-219572-REC-36165","Solicitud de Recomendaciones","2015-03-10T10:06:00.000","2015","2015.03","140-047-013-16","Naranjito","165, 3.0 Int., Lomas, Lomas, Naranjito","Central","Archivado","Adjudicado","2015-03-20T00:00:00.000","REC","216816.61575053001","254818.46597912","No","SRA. EMERITA SANTIAGO ORTEGA","Privado","Rural","EMÉRITA SANTIAGO ORTEGA","(18.3285484313964, -66.2742462158203)","18.328548431396399","-66.274246215820298"
"2011-799529-REC-36163","Solicitud de Recomendaciones","2015-03-10T09:51:00.000","2015","2015.03","226-004-129-26","Gurabo","Carr. Pr 932, 1.1, Urb. Villa Del Carmen, Rincón, Gurabo","Humacao","Archivado","Adjudicado","2015-03-20T00:00:00.000","REC",,,"No","URB. VILLA DEL CARMEN","Privado","Rural","RAFAEL  QUIÑONEZ  VIGO",,,
"2013-155948-REC-36162","Solicitud de Recomendaciones","2015-03-10T09:39:00.000","2015","2015.03","163-000-009-13","Utuado","Carr. 141, 16.3, N/A, Mameyes Abajo, Utuado","Arecibo","Expedido","Adjudicado","2015-04-08T00:00:00.000","REC","184593.6476808","250337.08310297001","No","Angel Colón Colón","Privado","Rural","ANGEL COLÓN ","(18.2880706787109, -66.5790481567382)","18.288070678710898","-66.579048156738196"
"2013-219689-REC-36041","Solicitud de Recomendaciones","2015-03-09T16:40:00.000","2015","2015.03","062-063-736-07","Guaynabo","Carr. Pr-24, Km. 3.6, Pueblo Viejo, Pueblo Viejo, Guaynabo","Central","Archivado","Adjudicado","2015-06-12T00:00:00.000","REC","234602.61289535","264297.95839827001","No","Puma 351","Privado","Rural","CARLOS FIGUEROA ","(18.4139804840087, -66.1058273315429)","18.4139804840087","-66.105827331542898"
"2013-222707-REA-25821","REA Recomendación Ambiental","2015-03-09T14:19:00.000","2015","2015.03","208-026-111-02","Mayagüez","Carr. Pr-352, Km. 4.6, Leguisamo, Leguísamo, Mayagüez","Aguadilla","Expedido","Adjudicado","2015-06-09T00:00:00.000","REA","130768.02268140001","245310.99035122001","No","Super Stations Leguisamo","Privado","Rural","LUIS GRANELL ","(18.2415981292724, -67.0879516601562)","18.241598129272401","-67.087951660156193"
"2013-222707-REC-35961","Solicitud de Recomendaciones","2015-03-09T14:16:00.000","2015","2015.03","208-026-111-02","Mayagüez","Carr. Pr-352, Km. 4.6, Leguisamo, Leguísamo, Mayagüez","Aguadilla","Cancelado","Adjudicado","2015-04-12T00:00:00.000","REC","130768.02268140001","245310.99035122001","No","Super Stations Leguisamo","Privado","Rural","LUIS GRANELL ","(18.2415981292724, -67.0879516601562)","18.241598129272401","-67.087951660156193"
"2012-083560-REC-35901","Solicitud de Recomendaciones","2015-03-09T11:35:00.000","2015","2015.03","225-000-001-17","Caguas","Carr. Pr-156, Km. 57.7, Cañabón, Cañabón, Caguas","Humacao","Archivado","Adjudicado","2015-06-12T00:00:00.000","REC","239706.39906805","244754.060857039","No","Puma - 147","Privado","Urbano","CARLOS FIGUEROA ","(18.2373180389404, -66.0578994750976)","18.237318038940401","-66.057899475097599"
"2013-219548-REC-35876","Solicitud de Recomendaciones","2015-03-08T17:50:00.000","2015","2015.03","003-000-008-37","Isabela","Carretera #459, Km. 15.5 Int., Bejucos, Barrio Pueblo, Isabela","Aguadilla","Cancelado","Adjudicado","2015-04-09T00:00:00.000","REC","136659.56686498001","274541.852889159","No","Solares Agustin Garcia","Privado","Rural","AGUSTIN GARCIA ","(18.5058708190917, -67.0331497192382)","18.505870819091701","-67.033149719238196"
"2013-135460-API-82019","Planos de Inscripción","2015-03-08T15:02:00.000","2015","2015.03","461-057-145-17","Vieques","Pr-201, Km 4.1, La Mina, Puerto Real, Vieques","Central","Cancelado","Adjudicado","2015-06-22T00:00:00.000","API","301161.203978409","231636.371343729","No","Curry-Cowan-Bowie Segregation-2013","Privado","Rural","WYNNE CURRY ","(18.1167831420898, -65.4774856567382)","18.116783142089801","-65.477485656738196"
"2011-027963-API-82018","Planos de Inscripción","2015-03-07T18:39:00.000","2015","2015.03","299-000-009-10","Cayey","Pr-14 Interior, Km. 72.2, Sector La Loma, Rincón, Cayey","Humacao","Cancelado","Adjudicado","2015-04-23T00:00:00.000","API","230486.524369149","232336.259856319","No","Mansiones Monte Verde","Privado","Urbano","JESUS  RODRIGUEZ FUENTES","(18.1252746582031, -66.145263671875)","18.1252746582031","-66.145263671875"
"2011-798585-REC-35873","Solicitud de Recomendaciones","2015-03-07T12:11:00.000","2015","2015.03","085-055-446-01","Bayamón","Calle Andalucía, 1, Ext. Forest Hills, Cerro Gordo, Bayamón","Central","Expedido","Adjudicado","2015-05-20T00:00:00.000","REC","228905.10775477","261360.756608019","No","IGLESIA BAUTISTA LA NUEVA JERUSALEM","Privado","Urbano","EDGAR GARCÍA LANDRÓN","(18.3875274658203, -66.159797668457)","18.387527465820298","-66.159797668457003"
"2013-223995-API-82017","Planos de Inscripción","2015-03-07T10:44:00.000","2015","2015.03","421-057-260-30","Arroyo","Carretera Pr 53, 0.9, Palmas, Palmas, Arroyo","Humacao","Cancelado","Adjudicado","2015-04-09T00:00:00.000","API","243487.49308260001","216516.769261579","No","Segregacion 2 Solares Miguel Collado","Privado","Rural","MIGUEL  COLLADO ","(17.9821224212646, -66.0227508544921)","17.982122421264599","-66.022750854492102"
"2013-139101-REC-35872","Solicitud de Recomendaciones","2015-03-06T22:17:00.000","2015","2015.03","400-000-004-75","Maunabo","Carretera 939 Interior, 0.7, ., Quebrada Arenas, Maunabo","Humacao","Cancelado","Adjudicado","2015-04-11T00:00:00.000","REC","257643.604162779","220524.69716553","No","SUCECION RUIZ","Privado","Rural","SUCECION NATIVIDAD RUIZ ","(18.0179996490478, -65.8889846801757)","18.017999649047798","-65.888984680175696"
"2012-039420-REC-35871","Solicitud de Recomendaciones","2015-03-06T21:36:00.000","2015","2015.03","400-000-004-43","Maunabo","Carretera 939, Km. 0.9 Int, ., Quebrada Arenas, Maunabo","Humacao","Cancelado","Adjudicado","2015-04-10T00:00:00.000","REC","257416.973465549","220428.52934256001","No","SUCN JOSE ORTIZ/ SEGREGACION DE DOS LOTES","Privado","Rural","SUCN JOSE RUIZ ","(18.0171375274658, -65.891128540039)","18.017137527465799","-65.891128540039006"
"2012-076746-REC-35870","Solicitud de Recomendaciones","2015-03-06T19:53:00.000","2015","2015.03","125-000-010-14","Rincón","Carrtera Pr-412, 8.2 Int., Sector Carrerro, Jagüey, Rincón","Aguadilla","Expedido","Adjudicado","2015-03-24T00:00:00.000","REC","119522.89197116","254359.51471233901","No","Segregacion de cinco solares rurales","Privado","Rural","SUCN. JUAN CARRERO LAMBERTY","(18.3229579925537, -67.1946334838867)","18.3229579925537","-67.194633483886705"
"2013-191107-REC-35868","Solicitud de Recomendaciones","2015-03-06T14:39:00.000","2015","2015.03","070-000-008-71","Moca","111, 6.6, Voladoras, Voladoras, Moca","Aguadilla","Expedido","Adjudicado","2015-05-20T00:00:00.000","REC","130188.47965896","261085.347271259","No","Segregacion de Dos solares del Sr. Marcial Acevedo","Privado","Rural","MARCIAL ACEVEDO CABAN","(18.3840961456298, -67.0939712524414)","18.384096145629801","-67.093971252441406"
"2011-799187-REC-35862","Solicitud de Recomendaciones","2015-03-06T11:35:00.000","2015","2015.03","111-009-157-61","Toa Alta","Carretera Pr-165, Km 8.7, -, Contorno, Toa Alta","Central","Cancelado","Adjudicado","2015-04-10T00:00:00.000","REC","218574.28859248001","259596.78388556","No","Galateo-Toa Alta Telecom Site","Privado","Rural","EDGAR MONTAÑEZ ","(18.3717060089111, -66.2575759887695)","18.371706008911101","-66.257575988769503"
"2013-143621-REC-35861","Solicitud de Recomendaciones","2015-03-06T10:19:00.000","2015","2015.03","032-061-886-05","Arecibo","Carr. 683, Km. 05, Sector Pastranas, Factor, Arecibo","Arecibo","Expedido","Adjudicado","2015-05-01T00:00:00.000","REC","179798.273256969","267769.91073747003","No","Consulta Construicción Edificio Comercial ","Privado","Rural","BELÉN VÉLEZ ","(18.4455318450927, -66.6245727539062)","18.445531845092699","-66.624572753906193"
"2013-153088-API-82012","Planos de Inscripción","2015-03-06T08:04:00.000","2015","2015.03","182-042-017-16","Añasco","Carr. Pr-4430, Km. 1.1, Sector Oveja, Ovejas, Añasco","Aguadilla","Expedido","Adjudicado","2015-03-20T00:00:00.000","API","127736.10565554","247775.9647448","No","Segregacion de dos solares","Privado","Rural","VICTOR RUIZ LUGO","(18.2637691497802, -67.1167068481445)","18.263769149780199","-67.116706848144503"
"2013-127920-API-81991","Planos de Inscripción","2015-03-05T23:31:00.000","2015","2015.03","154-013-006-50","Añasco","402, 5.0 Int., Piñales, Piñales, Añasco","Aguadilla","Expedido","Adjudicado","2015-06-04T00:00:00.000","API","122219.28877026","252406.12103313001","No","Segregacion de Solares Miguel Rosado","Privado","Rural","MIGUEL ROSADO CARRERO","(18.3054084777832, -67.1690521240234)","18.3054084777832","-67.169052124023395"
"2013-221775-REC-35833","Solicitud de Recomendaciones","2015-03-05T11:11:00.000","2015","2015.03","186-000-001-11","Lares","128, 41.8, Cruce Morel, Buenos Aires, Lares","Arecibo","Expedido","Adjudicado","2015-04-09T00:00:00.000","REC","154114.13427223","248303.44635655","No","Sist. Electrico Beneficiado Cafe Lealtad","Privado","Rural","EDWIN SOTO RUIZ","(18.2692623138427, -66.8672714233398)","18.269262313842699","-66.867271423339801"
"2013-197920-API-81977","Planos de Inscripción","2015-03-05T11:04:00.000","2015","2015.03","197-000-001-75","Aguas Buenas","Pr-781, 7.1 Interior, Sector Los Casillas, Juan Asencio, Aguas Buenas","Humacao","Expedido","Adjudicado","2015-03-10T00:00:00.000","API","227379.38799712001","248827.78625951","No","Segregacion Sergio Negron Falcon","Privado","Rural","SERGIO NEGRON  FALCON","(18.274314880371, -66.1744003295898)","18.274314880371001","-66.174400329589801"
"2012-090721-API-81975","Planos de Inscripción","2015-03-05T10:20:00.000","2015","2015.03","392-000-009-03","Santa Isabel","Pr153, Int. Pr-52, Portal De La Reina, Jauca Ii, Santa Isabel","Ponce","Expedido","Adjudicado","2015-03-12T00:00:00.000","API","204935.80813552","219985.00876398","No","Urbanizacion Brisas del Oasis","Privado","Urbano","JOSE MUNDO ","(18.0138931274414, -66.3867263793945)","18.013893127441399","-66.386726379394503"
"2012-058409-CUB-58889","Consulta de Ubicacion","2015-03-05T09:23:00.000","2015","2015.03","247-024-153-04","Barranquitas","Pr-152 , 3.7 Interior, Sector Sinforoso Aponte, Quebradillas, Barranquitas","Ponce","Evaluación","Pendiente",,"CUB","215175.33538644001","241664.67741706001","No","Antonio L. Rivera López","Privado","Rural","ANTONIO RIVERA LÓPEZ","(18.2097187042236, -66.2898712158203)","18.209718704223601","-66.289871215820298"
"2013-174108-REC-35821","Solicitud de Recomendaciones","2015-03-05T07:20:00.000","2015","2015.03","476-022-007-04","Culebra","Calle Romero Final, #73, Dewey, Barrio Pueblo, Culebra","Central","Expedido","Adjudicado","2015-05-14T00:00:00.000","REC","319838.19968202","252337.19586055001","No","Apartamentos 'Casa Lute'","Privado","Rural","JOSE L.  BORRERO MARIEN ","(18.3028469085693, -65.2998046875)","18.3028469085693","-65.2998046875"
"2013-179584-API-81960","Planos de Inscripción","2015-03-04T19:03:00.000","2015","2015.03","189-023-210-04","Utuado","Carr. 611, Km 7.2 Int, La Sabana, Sabana Grande, Utuado","Arecibo","Expedido","Adjudicado","2015-03-06T00:00:00.000","API","174834.038516389","248502.12573139","No","Ada Rivera Maldonado","Privado","Rural","ADA RIVERA ","(18.2714004516601, -66.6713256835937)","18.271400451660099","-66.671325683593693"
"2012-060262-REC-35802","Solicitud de Recomendaciones","2015-03-04T16:36:00.000","2015","2015.03","115-036-097-26","Trujillo Alto","Pr-846 Y Pr-845, 0.1, Leprocomio, Cuevas, Trujillo Alto","Central","Expedido","Adjudicado","2015-03-16T00:00:00.000","REC","242899.62278136","258433.853066079","No","Proyecto Aires de Manantial","Privado","Rural","NILDA  DIAZ ","(18.3608493804931, -66.0274200439453)","18.3608493804931","-66.027420043945298"
"2012-007567-REC-35800","Solicitud de Recomendaciones","2015-03-04T15:05:00.000","2015","2015.03","019-096-039-31","Dorado","Calle C, 117, Sardinera Beach, Barrio Pueblo, Dorado","Central","Expedido","Adjudicado","2015-03-30T00:00:00.000","REC",,,"No","Lavandería","Privado","Urbano","TOMÁS  VÉLEZ ",,,
"2013-218844-API-81958","Planos de Inscripción","2015-03-04T14:12:00.000","2015","2015.03","333-020-324-03","San Germán","N/A Carr. 102 Km. , Km. 28.6 A 28.8, Lomas Lindas, Maresúa, San Germán","Aguadilla","Expedido","Adjudicado","2015-03-20T00:00:00.000","API","132795.79801802","228136.89664950001","No","Reinaldo Caquias Ramos","Privado","Rural","REINALDO CAQUIAS RAMOS","(18.086498260498, -67.0682144165039)","18.086498260498001","-67.068214416503906"
"2013-199133-API-81957","Planos de Inscripción","2015-03-04T13:40:00.000","2015","2015.03","099-089-496-45","San Sebastián","Carr. Pr-125, Km. 19.1, Guatemala, Guatemala, San Sebastián","Aguadilla","Expedido","Adjudicado","2015-03-18T00:00:00.000","API","139300.12293012001","256913.08775845901","No","San Antonio IV","Privado","Urbano","RUBÉN RAMÍREZ FONT","(18.3466796875, -67.0076217651367)","18.3466796875","-67.007621765136705"
"2012-098381-REC-35794","Solicitud de Recomendaciones","2015-03-04T13:01:00.000","2015","2015.03","283-050-010-14","Hormigueros","Calle Oriente Interior, Estacionamiento, Pueblo, Barrio Pueblo, Hormigueros","Aguadilla","Expedido","Adjudicado","2015-04-06T00:00:00.000","REC","126606.89977711","234007.36312436001","No","Rehabilitación Terminal de Vehiculos Públicos","Público","Urbano","FRANCISCO NAZARIO ","(18.1393070220947, -67.1271438598632)","18.139307022094702","-67.127143859863196"
"2013-199133-REC-35792","Solicitud de Recomendaciones","2015-03-04T12:57:00.000","2015","2015.03","099-089-496-45","San Sebastián","Carr. Pr-125, Km. 19.1, Guatemala, Guatemala, San Sebastián","Aguadilla","Expedido","Adjudicado","2015-03-09T00:00:00.000","REC","139300.12293012001","256913.08775845901","No","San Antonio IV","Privado","Urbano","RUBÉN RAMÍREZ FONT","(18.3466796875, -67.0076217651367)","18.3466796875","-67.007621765136705"
"2012-046400-REC-35791","Solicitud de Recomendaciones","2015-03-04T12:03:00.000","2015","2015.03","366-000-010-33","Juana Díaz","Carreteras Estatales Pr-149 & Pr-592, X, Amuelas, Amuelas, Juana Díaz","Ponce","Expedido","Adjudicado","2015-04-10T00:00:00.000","REC","192110.50957789001","223058.48573270001","No","Plaza Juana Díaz Sur","Privado","Urbano","EDGARDO RIVERA GÓMEZ","(18.0416526794433, -66.5078430175781)","18.041652679443299","-66.507843017578097"
"2011-694289-REC-35789","Solicitud de Recomendaciones","2015-03-04T10:39:00.000","2015","2015.03","099-000-009-25","San Sebastián","Carr   Pr 125, Km. 19.1, Int., Guatemala, Guatemala, San Sebastián","Aguadilla","Expedido","Adjudicado","2015-03-13T00:00:00.000","REC","138979.788211359","256807.730746279","No","San Antonio de la Plata - 3","Privado","Rural","RUBÉN RAMIREZ FONT","(18.345718383789, -67.0106506347656)","18.345718383788999","-67.010650634765597"
"2013-198725-REC-35787","Solicitud de Recomendaciones","2015-03-04T09:44:00.000","2015","2015.03","115-036-097-26","Trujillo Alto","Carretera Estatal Pr-845, Km 3.9, -, Cuevas, Trujillo Alto","Central","Expedido","Adjudicado","2015-04-22T00:00:00.000","REC","242899.62278136","258433.853066079","No","AIRES DEL MANANTIAL","Privado","Urbano","NILDA DÍAZ DÍAZ","(18.3608493804931, -66.0274200439453)","18.3608493804931","-66.027420043945298"
"2012-031981-REC-35785","Solicitud de Recomendaciones","2015-03-04T08:50:00.000","2015","2015.03","389-082-839-12","Ponce","Primo Delgado, # 8, Canas Urbano, Canas Urbano, Ponce","Ponce","Expedido","Adjudicado","2015-04-29T00:00:00.000","REC","180890.09632809","218635.27894146901","No","Cooperativa de a/c de Adjuntas Sucursal de PONCE","Privado","Urbano","MIGUEL JUSINO MARTÍNEZ","(18.0016174316406, -66.6137771606445)","18.0016174316406","-66.613777160644503"
"2012-092345-CUB-58873","Consulta de Ubicacion","2015-03-04T08:45:00.000","2015","2015.03","227-077-434-10","Juncos","Carr. 935, 3.8 (Int.), N/A, Ceiba Norte, Juncos","Humacao","Cancelado","Adjudicado","2015-04-05T00:00:00.000","CUB","256706.643692449","243282.67593654001","No","Consulta de Urbanización","Privado","Rural","EDWIN ROSADO HERNANDEZ","(18.2236404418945, -65.8972015380859)","18.223640441894499","-65.897201538085895"
"2012-022242-REC-35216","Solicitud de Recomendaciones","2015-01-29T14:12:00.000","2015","2015.01","299-000-010-20","Cayey","Pr#1, 54.9, Montellano, Monte Llano, Cayey","Humacao","Cancelado","Adjudicado","2015-03-06T00:00:00.000","REC","231584.036841769","232939.33604163001","No","La Carpa","Privado","Urbano","JOSE PEREZ ","(18.1307067871093, -66.1348800659179)","18.1307067871093","-66.134880065917898"
"2012-007406-REC-35783","Solicitud de Recomendaciones","2015-03-04T07:58:00.000","2015","2015.03","063-061-270-22","San Juan","550 Ave. Munoz Rivera & 108 Ave. Domenec, 550 &108, Urb. Eleanor Roosevelt, Hato Rey Norte, San Juan","Central","Cancelado","Adjudicado","2015-04-09T00:00:00.000","REC","239719.63608001001","264493.58540898899","No","VIEW POINT @ DOMENECH","Privado","Urbano","EDUARDO NEVARES ","(18.4157485961914, -66.0571212768554)","18.415748596191399","-66.057121276855398"
"2013-221309-REC-35782","Solicitud de Recomendaciones","2015-03-04T07:18:00.000","2015","2015.03","200-000-008-09","Gurabo","Calle Angel C. Morales , Esq. Carr. Pr-181, Bo. Pueblo, Barrio Pueblo, Gurabo","Humacao","Expedido","Adjudicado","2015-05-21T00:00:00.000","REC","249072.90940413001","246953.77558913","No","Fuente de la Puertorriqueñidad & Anfiteatro","Público","Urbano","ROSACHELY RIVERA ","(18.2569980621337, -65.9692840576171)","18.2569980621337","-65.969284057617102"
"2012-043002-REC-35781","Solicitud de Recomendaciones","2015-03-04T07:09:00.000","2015","2015.03","011-069-412-41","Arecibo","Pr - 2, Km. 80.4, Sector Las Canelas, Hato Abajo, Arecibo","Arecibo","Expedido","Adjudicado","2015-06-15T00:00:00.000","REC","165353.97577681","271436.55617673899","No","NUEVO ACCESO - INTERAMERICANA RECINTO DE ARECIBO","Privado","Urbano","RAFAEL RAMÍREZ RIVERA","(18.47847366333, -66.7613677978515)","18.47847366333","-66.761367797851506"
"2013-149980-REC-35778","Solicitud de Recomendaciones","2015-03-03T21:11:00.000","2015","2015.03","118-000-008-84","Río Grande","Carr. 956, Km. 4.9, Los Marquez, Guzmán Abajo, Río Grande","Central","Cancelado","Adjudicado","2015-04-04T00:00:00.000","REC","262381.51250194001","256602.69510236001","No","SEGREGACION 2SOLARES SR. ESQUILIN","Privado","Rural","BALBINO ESQUILIN ","(18.3438262939453, -65.8431396484375)","18.343826293945298","-65.8431396484375"
"2011-798288-REC-35776","Solicitud de Recomendaciones","2015-03-03T17:31:00.000","2015","2015.03","124-010-015-01","Rincón","Calle Parque, Rincón Pr, Barrio Pueblo, Pueblo, Rincón","Aguadilla","Cancelado","Adjudicado","2015-04-06T00:00:00.000","REC","113575.3031741","256277.80520095001","No","Hotel Ojo de Agua","Público","Urbano","CARLOS LÓPEZ BONILLA","(18.3400573730468, -67.2509765625)","18.3400573730468","-67.2509765625"
"2013-213148-REC-35775","Solicitud de Recomendaciones","2015-03-03T17:05:00.000","2015","2015.03","115-059-004-10","Trujillo Alto","Dr. Fernandez, 202, Pueblo, Barrio Pueblo, Trujillo Alto","Central","Expedido","Adjudicado","2015-05-15T00:00:00.000","REC","245049.58205073001","257751.48400247001","No","Edificio Los Arcos Recomendaciones","Privado","Urbano","NILDA DIAZ ","(18.3546409606933, -66.007095336914)","18.354640960693299","-66.007095336914006"
"2013-190882-API-81952","Planos de Inscripción","2015-03-03T15:06:00.000","2015","2015.03","030-054-859-02","Arecibo","Pr 10, Km. 85.4, Sector Abra De San Francisco, Hato Arriba, Arecibo","Arecibo","Expedido","Adjudicado","2015-03-06T00:00:00.000","API","168880.04184125","268314.75657261","No","Sucn. Santana Duprey","Privado","Rural","SUCN. SANTANA DUPREY","(18.4503231048583, -66.7279357910156)","18.450323104858299","-66.727935791015597"
"2013-198324-REC-35768","Solicitud de Recomendaciones","2015-03-03T12:50:00.000","2015","2015.03","412-000-003-22","Ponce","Calle Santa Cruz, ., Urb. Los Caobos, Bucaná, Ponce","Ponce","Expedido","Adjudicado","2015-03-16T00:00:00.000","REC","183378.84247968","217754.6944215","No","FACILIDADES DE TELECOMUNICACIONES, PONCE","Privado","Rural","CARLOS NEGRÓN AVILÉS  ","(17.9936828613281, -66.5902709960937)","17.9936828613281","-66.590270996093693"
"2011-036236-PDE-10901","Permiso Demolicion","2015-03-03T10:59:00.000","2015","2015.03","010-029-043-03","Hatillo","Calle Ferrocarril, 10, Hatillo Del Mar, Barrio Pueblo, Hatillo","Arecibo","Cancelado","Adjudicado","2015-05-11T00:00:00.000","PDE","158892.98091750001","272745.50549055001","No","demolicion estructura existente parque Gerena","Público","Urbano","JOSE  RODRIGUEZ CRUZ","(18.4901847839355, -66.8225708007812)","18.490184783935501","-66.822570800781193"
"2012-064805-REC-35762","Solicitud de Recomendaciones","2015-03-03T10:03:00.000","2015","2015.03","334-033-064-04","San Germán","Ave. Universidad Interamericana , Esq.  Ramírez De Arellano, Pueblo , Barrio Pueblo, San Germán","Aguadilla","Expedido","Adjudicado","2015-04-06T00:00:00.000","REC","135248.65496943","227563.33500019001","No","Rehabilitación de Edificio Existente para Oficina","Privado","Urbano","MARÍA BODEGA  ","(18.0813903808593, -67.0450286865234)","18.0813903808593","-67.045028686523395"
"2011-066285-REC-35761","Solicitud de Recomendaciones","2015-03-03T09:22:00.000","2015","2015.03","095-089-127-03","Rincón","Ensenada Pr 413, 1.1 Int., 413, Ensenada, Rincón","Aguadilla","Expedido","Adjudicado","2015-04-06T00:00:00.000","REC","112790.00015733","256876.554286069","No","Puerto Bahia II","Privado","Urbano","EFRAIN GONZALEZ ","(18.3454341888427, -67.2584381103515)","18.345434188842699","-67.258438110351506"
"2013-227416-API-81948","Planos de Inscripción","2015-03-02T19:37:00.000","2015","2015.03","408-019-007-09","Guayanilla","Calle Santa Rosa, Solar#143, Comunidad Rural Indios, Boca, Guayanilla","Ponce","Expedido","Adjudicado","2015-03-13T00:00:00.000","API","159197.554232569","217729.66817742001","No","Milady Negron","Privado","Rural","MILADY NEGRON ","(17.9931335449218, -66.8185882568359)","17.9931335449218","-66.818588256835895"
"2012-047562-PRA-36382","Rotulos y anuncios","2015-03-02T18:46:00.000","2015","2015.03","207-025-960-14","Mayagüez","Pr 2, Km 149.8, Sabanetas, Sabanetas, Mayagüez","Aguadilla","Expedido","Adjudicado","2015-08-06T00:00:00.000","PRA","123171.48007228","245111.31182695","No","GFR MAYAGUEZ","Privado","Rural","JAVIER VIDAL ","(18.2395362854003, -67.1597747802734)","18.239536285400298","-67.159774780273395"
"2012-070408-PRA-36381","Rotulos y anuncios","2015-03-02T18:30:00.000","2015","2015.03","029-000-004-43","Hatillo","Carr 653 Esq 493, Km 3.0, Corcovado, Corcovado, Hatillo","Arecibo","Expedido","Adjudicado","2015-03-20T00:00:00.000","PRA","164152.426627929","269288.651652609","No","HATILLO-PREMIER","Privado","Rural","HUNTER PREMIER DISPLAYS","(18.4590492248535, -66.7727127075195)","18.459049224853501","-66.772712707519503"
"2013-125820-REC-35742","Solicitud de Recomendaciones","2015-03-02T18:08:00.000","2015","2015.03","253-093-237-02","Juncos","Pr 919, 4.2, Doctor Del As Gomas, Valenciano Abajo, Juncos","Humacao","Expedido","Adjudicado","2015-04-21T00:00:00.000","REC","254479.41604824","239349.542311539","No","Segregacion Sucn Carmen Cruz Castro","Privado","Rural","LUIS LOPEZ RIJOS","(18.1881637573242, -65.9183654785156)","18.188163757324201","-65.918365478515597"
"2013-214389-REC-35736","Solicitud de Recomendaciones","2015-03-02T15:02:00.000","2015","2015.03","284-041-231-10","Hormigueros","0 345, 1.2, 0, Barrio Pueblo, Hormigueros","Aguadilla","Expedido","Adjudicado","2015-12-01T00:00:00.000","REC","126997.777190099","234052.16001645901","No","EGIDA DE HORMIGUEROS","Público","Urbano","MUNICIPIO DE HORMIGUEROS MUNICIPIO DE HORMIGUEROS ","(18.1397514343261, -67.1231994628906)","18.139751434326101","-67.123199462890597"
"2013-ASE-57960","Autorización de Servicio","2013-12-20T10:07:00.000","2013","2013.12",,,,"A - To Handle","Expedido","Adjudicado","2013-12-20T00:00:00.000","ASE",,,"No",,,,"  ",,,
"2011-782132-REC-35729","Solicitud de Recomendaciones","2015-03-02T13:45:00.000","2015","2015.03","114-034-023-51","Guaynabo","Pr-199, 0, Santa Paula, Frailes, Guaynabo","Central","Expedido","Adjudicado","2015-04-01T00:00:00.000","REC","234675.20937654001","258625.34436774001","No","Sanchez Food Court","Privado","Urbano","ENRIQUE BLANES PALMER","(18.3627281188964, -66.105239868164)","18.362728118896399","-66.105239868164006"
"2012-049026-CUB-58852","Consulta de Ubicacion","2015-03-02T11:47:00.000","2015","2015.03","253-000-004-25","Juncos","Carr. 198, Km. 18.3 (Int), N/A, Ceiba Norte, Juncos","Humacao","Cancelado","Adjudicado","2015-04-16T00:00:00.000","CUB","257191.147519669","241476.72096308001","No","Consuta de Ubicacion","Privado","Rural","TOMASA UBILES OLMEDA","(18.207311630249, -65.8926696777343)","18.207311630248999","-65.892669677734304"
"2012-088482-API-81932","Planos de Inscripción","2015-03-01T16:14:00.000","2015","2015.03","262-000-001-36","Maricao","Pr 105, 22.2, Camino Montoso, Maricao Afuera, Maricao","Aguadilla","Expedido","Adjudicado","2015-04-07T00:00:00.000","API","140293.35351317","238446.97601032001","No","SEGREGACION JOSE M VICENTY","Privado","Rural","JOSE  VICENTY  MARTELL","(18.1798706054687, -66.997688293457)","18.1798706054687","-66.997688293457003"
"2013-142957-REC-35706","Solicitud de Recomendaciones","2015-02-28T19:55:00.000","2015","2015.02","377-073-226-08","Yabucoa","Carr. Pr-901, 3.1 Interior, Sector Los Riefkohl, Juan Martín, Yabucoa","Humacao","Archivado","Adjudicado","2015-06-12T00:00:00.000","REC","261110.77446832001","222795.95533674001","No","LOTIFICACION FINCA OLGA M. RIEFKOHL RIVERA","Privado","Rural","OLGA RIEFKOHL RIVERA","(18.0384254455566, -65.8561706542968)","18.038425445556602","-65.856170654296804"
"2013-159143-REC-35700","Solicitud de Recomendaciones","2015-02-27T20:51:00.000","2015","2015.02","071-023-319-04","Moca","Carr 112, 13.0, Sector Cortadera, Rocha, Moca","Aguadilla","Expedido","Adjudicado","2015-04-06T00:00:00.000","REC","135482.80418793001","262389.196821519","No","FACILIDAD DE TELECOMUNICACIONES ROCHA SITE","Privado","Rural","MANUEL AVILES AVILES","(18.3960418701171, -67.0439147949218)","18.396041870117099","-67.043914794921804"
"2011-031629-REC-35699","Solicitud de Recomendaciones","2015-02-27T20:28:00.000","2015","2015.02","146-000-001-25","Carolina","Carr 853, Km 7.85 Interior, Sector Cerro Gordo, Barrazas, Carolina","Central","Expedido","Adjudicado","2015-03-19T00:00:00.000","REC",,,"No","Facilidad de Telecomunicaciones de Canovanillas Su","Privado","Rural","MANUEL AVILES AVILES",,,
"2013-114781-PRA-36363","Rotulos y anuncios","2015-02-27T15:00:00.000","2015","2015.02","031-065-550-22","Arecibo","Pr-2, Km. 68.1, Bo.Santana, Santana, Arecibo","Arecibo","Expedido","Adjudicado","2015-03-10T00:00:00.000","PRA","176173.50866779001","267850.06811559002","No","PUMA SS-111","Privado","Rural","CARLOS I FIGUEROA ","(18.4462184906005, -66.6588897705078)","18.446218490600501","-66.658889770507798"
"2012-016783-API-81921","Planos de Inscripción","2015-02-27T14:50:00.000","2015","2015.02","025-000-009-97","Isabela","Sector Toe Carr. P.R. 494, 0.6 Int, Bo. Arenales Altos, Arenales Altos, Isabela","Aguadilla","Expedido","Adjudicado","2015-03-09T00:00:00.000","API","137630.34138879","267172.59708558","No","SEGREGACION DE OCHO(8) SOLARES-CARLOS ARCE","Privado","Rural","CARLOS ARCE ","(18.4393215179443, -67.0237350463867)","18.4393215179443","-67.023735046386705"
"2013-198093-REC-35694","Solicitud de Recomendaciones","2015-02-27T13:45:00.000","2015","2015.02","084-000-006-06","Toa Alta","Carr. Pr. 861, 10.4, Sector El Mandril, Mucarabones, Toa Alta","Central","Expedido","Adjudicado","2015-03-18T00:00:00.000","REC","219874.33054466001","260655.39770941","No","GRAN VISTA TOA ALTA","Privado",,"T.A. COMMUNITY,  LLC ","(18.3757419586181, -66.2459487915039)","18.3757419586181","-66.245948791503906"
"2013-223498-API-81919","Planos de Inscripción","2015-02-27T11:10:00.000","2015","2015.02","173-000-004-64","Trujillo Alto","Pr852, 5.2, Quebrada Grande, Quebrada Grande, Trujillo Alto","Central","Expedido","Adjudicado","2015-03-04T00:00:00.000","API","250121.28172047","252734.45596645001","No","8 Solares Qga Grande","Privado","Rural","MIGUEL PLACER ","(18.3092002868652, -65.959228515625)","18.309200286865199","-65.959228515625"
"2012-011675-PRA-36362","Rotulos y anuncios","2015-02-27T10:30:00.000","2015","2015.02","087-077-138-02","Trujillo Alto","Int.  Carr. 876, ., Carr. 181, St. Just, Trujillo Alto","Central","Expedido","Adjudicado","2015-03-05T00:00:00.000","PRA","243245.54465046001","260439.15595972","No","Royal Auto #29","Privado","Rural","MANUEL  MIRANDA ","(18.3789596557617, -66.0241088867187)","18.378959655761701","-66.024108886718693"
"2012-104024-API-81918","Planos de Inscripción","2015-02-27T09:48:00.000","2015","2015.02","253-072-263-06","San Lorenzo","Carr. 183. Interior, Km. 15.0, Barrio Florida, Florida, San Lorenzo","Humacao","Expedido","Adjudicado","2015-03-02T00:00:00.000","API","253215.65136608901","239843.00270631001","No","SEGREGACION DE UN SOLAR Y REMANENTE","Privado","Rural","ELSIE LOPEZ NIEVES","(18.1926536560058, -65.9302978515625)","18.192653656005799","-65.9302978515625"
"2012-035313-API-81914","Planos de Inscripción","2015-02-26T14:26:00.000","2015","2015.02","386-062-001-44","Guayanilla","Carretera Pr-335, Km. 11.4, Parcelas Verdún, Indios, Guayanilla","Ponce","Expedido","Adjudicado","2015-03-02T00:00:00.000","API","160937.01868173","219387.769879909","No","Sucn. Pastor Mandry","Privado","Rural","VICTOR FINGERHUT ","(18.0081462860107, -66.8022003173828)","18.0081462860107","-66.802200317382798"
"2013-217867-CUB-58828","Consulta de Ubicacion","2015-02-26T14:14:00.000","2015","2015.02","181-000-007-17","Mayagüez","Carretera Pr-64, K, 4,8, Sabanetas, Sabanetas, Mayagüez","Aguadilla","Archivado","Adjudicado","2015-06-15T00:00:00.000","CUB","122334.31274143","246091.60291838","No","Taller de Electromecanica","Privado","Rural","ANGEL VELAZQUEZ ALVAREZ","(18.2483615875244, -67.167724609375)","18.2483615875244","-67.167724609375"
"2013-224009-REC-35667","Solicitud de Recomendaciones","2015-02-26T13:21:00.000","2015","2015.02","007-017-131-09","Isabela","Carr. 474, Ave. Carlos Gardel, Sector Flamboyán, Barrio Pueblo, Isabela","Aguadilla","Expedido","Adjudicado","2015-03-12T00:00:00.000","REC","138039.42084566","273289.019447639","No","Rehabilitación de Edificio para Apartamentos","Privado","Urbano","ARMANDO VARGAS ","(18.4945926666259, -67.0200500488281)","18.494592666625898","-67.020050048828097"
"2012-012665-API-81911","Planos de Inscripción","2015-02-26T11:14:00.000","2015","2015.02","344-000-003-42","Coamo","Carr. 150, Km 17.0, La Polilla, Santa Catalina, Coamo","Ponce","Expedido","Adjudicado","2015-02-27T00:00:00.000","API","203314.65563083001","227913.626294499","No","VISTAS DE SAN BLAS","Privado","Rural","HECTOR LEON RIVERA","(18.0855312347412, -66.4020233154296)","18.0855312347412","-66.402023315429602"
"2012-101500-REC-35665","Solicitud de Recomendaciones","2015-02-26T11:03:00.000","2015","2015.02","119-000-006-88","Río Grande","Carr. 966, Km. 1.1 Int, Sector La Piramide, Jiménez, Río Grande","Central","Cancelado","Adjudicado","2015-04-03T00:00:00.000","REC","265964.11241175001","257939.03455951001","No","SEGREGACION SR. ANGEL L. COLON ","Privado","Rural","ANGEL L. COLON ","(18.3557929992675, -65.8092041015625)","18.3557929992675","-65.8092041015625"
"2013-193055-REC-35660","Solicitud de Recomendaciones","2015-02-26T07:39:00.000","2015","2015.02","251-000-007-26","Caguas","Carretera 765, Ramal 761,  Km 3.8, Alturas De Borinquen , Borinquen, Caguas","Humacao","Expedido","Adjudicado","2015-03-20T00:00:00.000","REC","241336.50803467","239160.899788629","No","BORINQUEN  SITE ","Privado","Urbano","KALET TORRES ","(18.1867523193359, -66.0426025390625)","18.186752319335898","-66.0426025390625"
"2012-038952-API-81902","Planos de Inscripción","2015-02-25T14:45:00.000","2015","2015.02","324-000-005-12","Cayey","Marginla Pr #52, 0, Alturas Del Prado, Monte Llano, Cayey","Humacao","Cancelado","Adjudicado","2015-06-11T00:00:00.000","API","232391.091642079","231439.91799474001","No","ALTURAS DEL PRADO","Privado","Rural","MIGUEL MELENDEZ REYES","(18.1171493530273, -66.1272811889648)","18.117149353027301","-66.127281188964801"
"2012-044606-API-81901","Planos de Inscripción","2015-02-25T14:34:00.000","2015","2015.02","109-000-004-26","Morovis","Carr. P.R. 6634, Km. 3.1, Morovis Norte, Morovis Norte, Morovis","Arecibo","Expedido","Adjudicado","2015-03-04T00:00:00.000","API","204317.99464513001","258376.39130531001","No","Sucn. Marcos Hernandez","Privado","Rural","SUCN. MARCOS HERNANDEZ ","(18.3607559204101, -66.392478942871)","18.360755920410099","-66.392478942870994"
"2013-185017-API-81895","Planos de Inscripción","2015-02-25T12:01:00.000","2015","2015.02","322-000-010-07","Aibonito","Carretera # 716, Km. 0.8, Bo. Cuyon, Cuyón, Aibonito","Ponce","Expedido","Adjudicado","2015-02-25T00:00:00.000","API","219520.80071205","229614.956971359","No","GUILLERMO RAMOS RIVERA","Privado","Rural","GUILLERMO RAMOS RIVERA","(18.1008167266845, -66.2489013671875)","18.100816726684499","-66.2489013671875"
"2013-134702-REC-35648","Solicitud de Recomendaciones","2015-02-25T10:40:00.000","2015","2015.02","310-071-435-13","San Germán","Carr. 347, Km-2.7 Interior Y Km-2.9, Sector El Coto, Sabana Grande Abajo, San Germán","Aguadilla","Evaluación","Pendiente",,"REC","133929.102344129","229551.340726469","No","HNOS PIETRI GOMEZ","Privado","Rural","HNOS PIETRI GOMEZ ","(18.0993118286132, -67.0575561523437)","18.0993118286132","-67.057556152343693"
"2012-022101-CUB-58810","Consulta de Ubicacion","2015-02-25T10:32:00.000","2015","2015.02","255-000-001-18","Naguabo","Carr. Pr-31, Km. 11.5 (Int.), Sector La Residencia, Peña Pobre, Naguabo","Humacao","Expedido","Adjudicado","2015-06-04T00:00:00.000","CUB","266597.340485099","242416.569127439","No","Consulta de Ubicacion","Privado","Rural","AURELIO SANTANA MILLAN","(18.2155323028564, -65.8037185668945)","18.215532302856399","-65.803718566894503"
"2012-029128-API-81891","Planos de Inscripción","2015-02-25T06:43:00.000","2015","2015.02","248-000-004-07","Comerío","791, 6.2, Cejas, Vega Redonda, Comerío","Humacao","Expedido","Adjudicado","2015-02-25T00:00:00.000","API","224606.03871585001","241072.14614095","No","Segregación de cuatro (4) solares","Privado","Rural","SUCN. GREGORIO  ROSARIO LÓPEZ","(18.2042789459228, -66.2007217407226)","18.204278945922798","-66.200721740722599"
"2013-120604-REC-35634","Solicitud de Recomendaciones","2015-02-24T12:52:00.000","2015","2015.02","003-087-019-18","Isabela","C/ Manuel Corchado, #, Sector Pueblo, Barrio Pueblo, Isabela","Aguadilla","Expedido","Adjudicado","2015-06-02T00:00:00.000","REC","137604.16103233001","274044.11898476002","No","Remodelación y Renovacion Estructura para Museo ","Público","Urbano","MUNICIPIO DE ISABELA ","(18.5014019012451, -67.0241928100585)","18.501401901245099","-67.024192810058494"
"2012-007501-PRA-36320","Rotulos y anuncios","2015-02-24T12:49:00.000","2015","2015.02","087-086-057-39","Trujillo Alto","Pr-846, Km 0.5, Trujillo Alto, Cuevas, Trujillo Alto","Central","Expedido","Adjudicado","2015-02-26T00:00:00.000","PRA","243077.44877997","260335.37621359","No","PUMA SS-145","Privado","Urbano","CARLOS FIGUEROA ","(18.3780250549316, -66.0256958007812)","18.378025054931602","-66.025695800781193"
"2012-098381-REC-35627","Solicitud de Recomendaciones","2015-02-24T10:55:00.000","2015","2015.02","283-050-010-14","Hormigueros","Calle Oriente Interior, Estacionamiento, Pueblo, Barrio Pueblo, Hormigueros","Aguadilla","Cancelado","Adjudicado","2015-03-29T00:00:00.000","REC","126606.89977711","234007.36312436001","No","Rehabilitación Terminal de Vehiculos Públicos","Público","Urbano","FRANCISCO NAZARIO ","(18.1398658752441, -67.1264266967773)","18.139865875244102","-67.126426696777301"
"2013-155862-REC-35626","Solicitud de Recomendaciones","2015-02-24T10:10:00.000","2015","2015.02","088-085-798-17","Carolina","Carretera Pr-887, Local 2, Sect. Carolina Industrial Park, Martín González, Carolina","Central","Archivado","Adjudicado","2015-03-11T00:00:00.000","REC","249031.23207835","260138.26862076001","No","WAREHOUSE PLAZA III ","Privado","Urbano","ALBERTO  COSSIO ","(18.3761177062988, -65.9693603515625)","18.3761177062988","-65.9693603515625"
"2012-048969-REC-35622","Solicitud de Recomendaciones","2015-02-24T09:28:00.000","2015","2015.02","101-000-002-01","San Sebastián","Pr-119, Km24, Bo. Guajataka, Guajataca, San Sebastián","Aguadilla","Archivado","Adjudicado","2015-07-24T00:00:00.000","REC","148769.88296205","259516.269251349","No","Mejoras al Campamento Guajataka","Privado","Rural","ALLEN ENDICOTT ","(18.3704452514648, -66.9180908203125)","18.370445251464801","-66.9180908203125"
"2011-031142-API-81854","Planos de Inscripción","2015-02-23T15:52:00.000","2015","2015.02","144-070-702-03","Trujillo Alto","Pr-851 , Km 2.8, La Gloria, La Gloria, Trujillo Alto","Central","Expedido","Adjudicado","2015-06-19T00:00:00.000","API","245369.62249139001","254109.12800590001","No","Segregacion de Cuatro (4) Solares","Privado","Rural","SUCESION MACHIN ","(18.3217258453369, -66.0041427612304)","18.3217258453369","-66.004142761230398"
"2012-094742-REC-35609","Solicitud de Recomendaciones","2015-02-23T13:13:00.000","2015","2015.02","138-046-045-16","Morovis","Carr. Pr 137, 18.7, Sector Patron, Barrio Pueblo, Morovis","Arecibo","Expedido","Adjudicado","2015-04-21T00:00:00.000","REC","203228.85902537001","254611.34933693","No","Proyecto: Edificio Comercioal","Privado","Urbano","JOSE MARTINEZ ","(18.3267421722412, -66.4027862548828)","18.3267421722412","-66.402786254882798"
"2012-047969-REC-35602","Solicitud de Recomendaciones","2015-02-23T09:46:00.000","2015","2015.02","062-073-686-06","Guaynabo","Pr-2, Pr-165, Pr-23 Y Ave. San Patricio, Intersección Caparra, Caparra, Pueblo Viejo, Guaynabo","Central","Archivado","Adjudicado","2015-06-12T00:00:00.000","REC","234564.98880041001","264036.015811569","No","Caprarra Interchange Improvements","Público","Urbano","ROBERTO  GARCÍA ","(18.4116134643554, -66.1061859130859)","18.411613464355401","-66.106185913085895"
"2011-316297-REC-35601","Solicitud de Recomendaciones","2015-02-23T09:35:00.000","2015","2015.02","125-084-142-01","Rincón","Pr 115, Km 93, Calvache, Calvache, Rincón","Aguadilla","Expedido","Adjudicado","2015-04-07T00:00:00.000","REC","116075.67499771","253356.75753367","No","Modernizacion- Escuela Manuel Gonzalez Melo-Rincon","Alianza Público Privada","Rural","MEMPHIS CABÁN ","(18.3137645721435, -67.2272033691406)","18.313764572143501","-67.227203369140597"
"2013-ASE-57424","Autorización de Servicio","2013-12-11T14:23:00.000","2013","2013.12",,,,"A - To Handle","Expedido","Adjudicado","2013-12-11T00:00:00.000","ASE",,,"No",,,,"  ",,,
"2013-203367-API-81845","Planos de Inscripción","2015-02-22T18:39:00.000","2015","2015.02","335-094-309-39","Sabana Grande","Pr 328, Km. 2.1, Sector Las Guaras, Rayo, Sabana Grande","Aguadilla","Expedido","Adjudicado","2015-03-03T00:00:00.000","API","142283.33278602001","225327.185499969","No","SR. IGNACIO RAMIREZ RIVERA","Privado","Rural","IGNACIO RAMÍREZ RIVERA","(18.061388015747, -66.9785079956054)","18.061388015746999","-66.978507995605398"
"2012-012665-API-81844","Planos de Inscripción","2015-02-22T16:55:00.000","2015","2015.02","344-000-003-42","Coamo","Carr. 150, Km 17.0, La Polilla, Santa Catalina, Coamo","Ponce","Cancelado","Adjudicado","2015-03-03T00:00:00.000","API","203314.65563083001","227913.626294499","No","VISTAS DE SAN BLAS","Privado","Rural","HECTOR LEON RIVERA","(18.0855312347412, -66.4020233154296)","18.0855312347412","-66.402023315429602"
"2012-074111-API-81843","Planos de Inscripción","2015-02-22T14:55:00.000","2015","2015.02","055-000-008-43","Manatí","P.R.-667, Km 4.4, Sector Cortes, Bajura Adentro, Manatí","Arecibo","Cancelado","Adjudicado","2015-03-27T00:00:00.000","API","189670.84995226","263925.77457090002","No","Miguel Gonzalez Nieves","Privado","Rural","MIGUEL GONZALEZ NIEVES","(18.4108715057373, -66.5310974121093)","18.410871505737301","-66.531097412109304"
"2012-089521-REC-35585","Solicitud de Recomendaciones","2015-02-20T16:25:00.000","2015","2015.02","063-041-089-05","San Juan","Ave. Rooseverlt Int. Ave. Luis Muñoz , 0, Hato Rey Norte, Hato Rey Norte, San Juan","Central","Expedido","Adjudicado","2015-04-30T00:00:00.000","REC","239720.20057129001","265249.38882341899","No","CVS Pharmacy, Hato Rey","Privado","Urbano","CARLOS SÁNCHEZ GONZÁLEZ","(18.4224872589111, -66.057373046875)","18.422487258911101","-66.057373046875"
"2012-020111-API-81837","Planos de Inscripción","2015-02-20T13:07:00.000","2015","2015.02","227-000-008-91","Juncos","935, 3.0 Int. , Rancho Bonito, Ceiba Norte, Juncos","Humacao","Expedido","Adjudicado","2015-03-03T00:00:00.000","API","255869.80941786","243063.492802639","No","RANCHO VERDE DEVELOPMENT","Privado","Rural","FELIPE CRESPO CLAUDIO","(18.2216835021972, -65.9051208496093)","18.221683502197202","-65.905120849609304"
"2011-031874-REC-35575","Solicitud de Recomendaciones","2015-02-20T12:58:00.000","2015","2015.02","224-000-005-86","Aguas Buenas","Pr-156, 47.7, Sector Cruz Garay, Mula, Aguas Buenas","Humacao","Archivado","Adjudicado","2015-06-12T00:00:00.000","REC",,,"No","SEGREGACION SUCN. CRUZ GARAY","Privado","Rural","REMIGIO GARAY ",,,
"2012-082023-API-81836","Planos de Inscripción","2015-02-20T12:46:00.000","2015","2015.02","116-000-001-73","Trujillo Alto","Calle 6, 0, Urb. Lago Alto, Cuevas, Trujillo Alto","Central","Cancelado","Adjudicado","2015-06-11T00:00:00.000","API",,,"No","Villas de Camilo","Privado","Rural","ANGEL RIVERA MELENDEZ",,,
"2012-025200-API-81835","Planos de Inscripción","2015-02-20T12:28:00.000","2015","2015.02","061-041-032-87","Toa Baja","Los Marquez , Num.  169, Com. Sabana Seca, Sabana Seca, Toa Baja","Central","Expedido","Adjudicado","2015-03-18T00:00:00.000","API","226258.47418491001","265164.262248029","No","SEGREGACION AIDA BATISTA","Privado","Urbano","AIDA BATISTA ","(18.4219245910644, -66.1847915649414)","18.4219245910644","-66.184791564941406"
"2012-024365-REC-35563","Solicitud de Recomendaciones","2015-02-20T09:31:00.000","2015","2015.02","226-012-537-01","Gurabo","Unidad 154 Carr. Pr 30, Int. Pr 203, Km. 5.5, Senderos De Gurabo En Villas D, Rincón, Gurabo","Humacao","Expedido","Adjudicado","2015-04-06T00:00:00.000","REC","246737.058556509","245623.056965739","No","SENDEROS DE GURABO EN VILLAS DEL ESTE","Privado","Urbano","VIOLETA MENDEZ ","(18.2450275421142, -65.9914016723632)","18.245027542114201","-65.991401672363196"
"2013-135873-REC-35562","Solicitud de Recomendaciones","2015-02-20T08:53:00.000","2015","2015.02","356-078-254-19","Cabo Rojo","1 Carr. 103,, 13.0, 1, Llanos Tuna, Cabo Rojo","Aguadilla","Expedido","Adjudicado","2015-03-10T00:00:00.000","REC","125224.49727973","222832.22321445","No","Segregacion 4 Solares","Privado","Rural","JOSE ORTIZ NIEVES","(18.0383205413818, -67.139549255371)","18.0383205413818","-67.139549255370994"
"2012-064881-API-81831","Planos de Inscripción","2015-02-20T07:08:00.000","2015","2015.02","051-033-016-57","Hatillo","Pr-487, Km. 0.3, Bo.Buena Vista, Buena Vista, Hatillo","Arecibo","Expedido","Adjudicado","2015-02-20T00:00:00.000","API","161894.14993047001","265491.378361059","No","HERIBERTO ALONSO GONZALEZ","Privado","Rural","HERIBERTO ALONSO GONZALEZ","(18.4247016906738, -66.7940216064453)","18.4247016906738","-66.794021606445298"
"2013-191807-REC-35547","Solicitud de Recomendaciones","2015-02-19T18:13:00.000","2015","2015.02","115-032-819-21","San Juan","Calle 10, Cupey Park Residences, Urb Cupey Gardens, Cupey, San Juan","Central","Expedido","Adjudicado","2015-05-18T00:00:00.000","REC","240451.64711064001","258451.28287482","No","Cupey Park Residences","Privado","Urbano","SEBASTIAN HERRERA NOBILE","(18.3610553741455, -66.0505828857421)","18.361055374145501","-66.050582885742102"
"2012-027614-REC-35546","Solicitud de Recomendaciones","2015-02-19T17:41:00.000","2015","2015.02","390-075-006-19","Juana Díaz","Estatal, Pr 510, Sector Las Palomas, Sabana Llana, Juana Díaz","Ponce","Expedido","Adjudicado","2015-04-22T00:00:00.000","REC","189429.069529389","219113.27914612001","No","CONSTRUCCION DE EDIFICIO DE OFICINAS","Privado","Rural","VALENTIN RODRIGUEZ SANTIAGO","(18.0059967041015, -66.5331497192382)","18.005996704101499","-66.533149719238196"
"2012-007406-REC-35544","Solicitud de Recomendaciones","2015-02-19T15:13:00.000","2015","2015.02","063-061-270-22","San Juan","550 Ave. Munoz Rivera & 108 Ave. Domenec, 550 &108, Urb. Eleanor Roosevelt, Hato Rey Norte, San Juan","Central","Expedido","Adjudicado","2015-03-02T00:00:00.000","REC","239719.63608001001","264493.58540898899","No","VIEW POINT @ DOMENECH","Privado","Urbano","EDUARDO NEVARES ","(18.4157485961914, -66.0571212768554)","18.415748596191399","-66.057121276855398"
"2013-192075-REC-35543","Solicitud de Recomendaciones","2015-02-19T14:54:00.000","2015","2015.02","011-058-411-34","Arecibo","Marginal Pr 2, Km. 82.1, San Daniel, Hato Abajo, Arecibo","Arecibo","Cancelado","Adjudicado","2015-05-07T00:00:00.000","REC","165070.97084167","271718.03613775899","No","Cooperativa Haticoop","Privado","Urbano","LUIS MERCADO ","(18.4816799163818, -66.7637939453125)","18.4816799163818","-66.7637939453125"
"2012-036160-API-81820","Planos de Inscripción","2015-02-19T08:16:00.000","2015","2015.02","126-000-001-96","Aguada","N/A 416, Km 6.2, Lagunas, Lagunas, Aguada","Aguadilla","Cancelado","Adjudicado","2015-07-16T00:00:00.000","API","121726.08140624","255361.015605589","No","GREGORIO FELICIANO VALLE","Privado","Rural","GREGORIO  FELICIANO VALLE","(18.3310108184814, -67.1737518310546)","18.331010818481399","-67.173751831054602"
"2013-ASE-57401","Autorización de Servicio","2013-12-11T07:55:00.000","2013","2013.12",,,,"A - To Handle","Expedido","Adjudicado","2013-12-11T00:00:00.000","ASE",,,"No",,,,"  ",,,
"2013-206455-API-81818","Planos de Inscripción","2015-02-18T20:26:00.000","2015","2015.02","057-037-244-08","Vega Baja","Pr 155, 5.9, Vega Serena, Pugnado Afuera, Vega Baja","Arecibo","Cancelado","Adjudicado","2015-04-03T00:00:00.000","API","204154.2988628","265284.11824803002","No","0682-001VEGA SERENA 1","Privado","Urbano","ADRIAN STELLA ","(18.4231643676757, -66.3940124511718)","18.4231643676757","-66.394012451171804"
"2012-029065-REC-35526","Solicitud de Recomendaciones","2015-02-18T17:31:00.000","2015","2015.02","399-080-087-24","Maunabo","Carr. Pr-7762, Km.0.5 Int., Bo. Palo Seco, Palo Seco, Maunabo","Humacao","Expedido","Adjudicado","2015-04-06T00:00:00.000","REC","252211.79841357001","219262.19507630001","No","LOTIFICACION FINCA CARLOS RODRIGUEZ EN MAUNABO","Privado","Rural","CARLOS RODRIGUEZ TORRES","(18.0067329406738, -65.9403076171875)","18.0067329406738","-65.9403076171875"
"2012-046686-CUB-58731","Consulta de Ubicacion","2015-02-18T13:46:00.000","2015","2015.02","260-041-973-01","Mayagüez","Pr-348, 3.0, Rio Hondo, Río Hondo, Mayagüez","Aguadilla","Expedido","Adjudicado","2015-12-11T00:00:00.000","CUB","126791.16775705","237614.88823113","No","Finca-Torres","Privado","Rural","ANGEL TORRES VAZQUEZ","(18.1719341278076, -67.1252822875976)","18.171934127807599","-67.125282287597599"
"2013-159253-REC-35506","Solicitud de Recomendaciones","2015-02-18T09:55:00.000","2015","2015.02","188-029-155-09","Utuado","Pr #111, 1.8, Pueblo, Salto Abajo, Utuado","Arecibo","Expedido","Adjudicado","2015-03-24T00:00:00.000","REC","171955.602725239","248565.83502520001","No","LARCOOP Cooperativa de Ahorro y Crédito de Lares","Privado","Urbano","JOSE MARRERO TORRES","(18.2719402313232, -66.6985549926757)","18.2719402313232","-66.698554992675696"
"2011-708303-API-81814","Planos de Inscripción","2015-02-18T07:57:00.000","2015","2015.02","192-000-001-41","Ciales","Pr-615, Km.8.4, Llanada, Pozas, Ciales","Arecibo","Expedido","Adjudicado","2015-02-18T00:00:00.000","API","193836.21401947","249057.78523779","No","SEGREGACION TRES SOLARES Y REMANENTE ISMAEL TORRES","Privado","Rural","ISMAEL TORRES FIGUEROA","(18.2765598297119, -66.4916229248046)","18.2765598297119","-66.491622924804602"
"2013-186682-API-81804","Planos de Inscripción","2015-02-17T20:49:00.000","2015","2015.02","150-000-001-35","Fajardo","Pr-985, 2.5, Quebrada Fajardo, Quebrada Fajardo, Fajardo","Central","Expedido","Adjudicado","2015-03-18T00:00:00.000","API","279674.263443009","255559.58340693","No","Parcela German Betancourt","Privado","Rural","ROBERTO GUZMAN ","(18.3338298797607, -65.6795806884765)","18.3338298797607","-65.679580688476506"
"2012-104247-REC-35488","Solicitud de Recomendaciones","2015-02-17T16:24:00.000","2015","2015.02","466-000-003-38","Vieques","Carr. 996, Km. 3.4, Sector La Esperanza, Puerto Real, Vieques","Central","Expedido","Adjudicado","2015-09-18T00:00:00.000","REC","301102.92836793","229420.99633645001","No","SOUTH BEACH PARADISE AT LA ESPERANZA","Privado","Urbano","MARCELINO  ALVAREZ PIRE","(18.0967693328857, -65.4781494140625)","18.0967693328857","-65.4781494140625"
"2012-055244-REC-35487","Solicitud de Recomendaciones","2015-02-17T16:17:00.000","2015","2015.02","277-012-009-30","Caguas","Carr Pr 765, Km 0.2, Borinquen, Borinquen, Caguas","Humacao","Expedido","Adjudicado","2015-02-20T00:00:00.000","REC","240506.61154139001","238469.96629501","No","Instalacion de Transformador","Privado","Rural","MOISES RODRIGUEZ ORTIZ","(18.1805267333984, -66.0504608154296)","18.180526733398398","-66.050460815429602"
"2012-065000-REC-35472","Solicitud de Recomendaciones","2015-02-17T09:24:00.000","2015","2015.02","057-000-004-24","Vega Baja","Avenida Vega Serena, Km 0.2, Finca Aulet, Pugnado Afuera, Vega Baja","Arecibo","Expedido","Adjudicado","2015-03-30T00:00:00.000","REC","203952.60191192001","266045.876301679","No","QMC-Las Granjas II Vega Baja","Privado","Rural","EDGAR MONTAÑEZ ","(18.4300476126701, -66.395919433693)","18.430047612670101","-66.395919433692995"
"2012-046309-PCU-40542","Permiso de Urbanización","2015-02-16T16:39:00.000","2015","2015.02","324-000-006-01","Cayey","Carr #1 , Km. 61 9(Int), Las Polleras, Matón Arriba, Cayey","Humacao","Expedido","Adjudicado","2015-04-17T00:00:00.000","PCU","226565.694019569","230289.94979526001","No","Myrta Malave","Privado","Rural","MYRTA MALAVE ","(18.1068382263183, -66.1823348999023)","18.106838226318299","-66.182334899902301"
"2012-062250-REC-35467","Solicitud de Recomendaciones","2015-02-16T15:11:00.000","2015","2015.02","140-000-008-61","Naranjito","Carr #8811, Km 11.0 Carr #164, Sector Los Marreros, Lomas, Naranjito","Central","Expedido","Adjudicado","2015-03-12T00:00:00.000","REC","216344.005379059","253298.60011237001","No","Antonio Marrero","Privado","Rural","ANTONIO MARRERO ","(18.3148212432861, -66.2787322998046)","18.314821243286101","-66.278732299804602"
"2011-778600-REC-35465","Solicitud de Recomendaciones","2015-02-16T11:39:00.000","2015","2015.02","044-000-006-02","Loíza","Pr-187, Km.10.2, El Trompito, Medianía Baja, Loíza","Central","Expedido","Adjudicado","2015-06-12T00:00:00.000","REC",,,"No","Sucn.Gilberto Quionez y Rosa Quinonez","Privado","Urbano","JULIO FIGUEROA CARRILLO",,,
"2013-224325-PRA-36261","Rotulos y anuncios","2015-02-16T11:18:00.000","2015","2015.02","027-026-002-63","Quebradillas","Carretera Pr-2, 96.8, Cocos, Cocos, Quebradillas","Aguadilla","Expedido","Adjudicado","2015-04-28T00:00:00.000","PRA","150294.18077203","269263.45053611899","No","RENOVACION MARBETE 2013 - ROTULO SOBRE EL TERRENO","Privado","Urbano","FELIPE VIDAL FIGUEROA","(18.4585437774658, -66.9039077758789)","18.458543777465799","-66.903907775878906"
"2013-224041-REC-35463","Solicitud de Recomendaciones","2015-02-16T09:43:00.000","2015","2015.02","056-000-008-65","Manatí","Carretera Estatal 670, Km 2.6, Complejo Deportivo Acrópolis, Coto Sur, Manatí","Arecibo","Cancelado","Adjudicado","2015-03-20T00:00:00.000","REC","196300.77981151","264348.830959299","No","Centro de Convenciones de Manatí","Público","Urbano","JOSÉ CABIYA MORALES","(18.414716720581, -66.4683456420898)","18.414716720581001","-66.468345642089801"
"2013-192918-REC-35461","Solicitud de Recomendaciones","2015-02-16T09:11:00.000","2015","2015.02","000-000-000-00","Guaynabo","Carretera Pr 22, Km 6, Sector Pueblo Viejo, Pueblo Viejo, Guaynabo","Central","Expedido","Adjudicado","2015-02-25T00:00:00.000","REC","228153.958635599","232251.15287803","No","13-D07 Billboard Buchanan","Privado","Urbano","HÉCTOR HORTA  SANTINI","(18.1245384216308, -66.1673049926757)","18.124538421630799","-66.167304992675696"
"2012-015248-REC-35460","Solicitud de Recomendaciones","2015-02-16T09:09:00.000","2015","2015.02","199-000-005-40","Gurabo","Carr.941, Km.4.3, Sector: Los Vives, Jaguas, Gurabo","Humacao","Cancelado","Adjudicado","2015-03-21T00:00:00.000","REC","245602.98610126","249417.148086339","No","Sucn. Nicolás Vives","Privado","Rural","SUCN. NICOLÁS VIVES ","(18.2793292999267, -66.0020446777343)","18.279329299926701","-66.002044677734304"
"2012-020622-PRA-36000","Rotulos y anuncios","2015-01-21T14:48:00.000","2015","2015.01","233-027-562-02","Mayagüez","Calle Post, 352, N/A, Barrio Pueblo, Mayagüez","Aguadilla","Expedido","Adjudicado","2015-03-13T00:00:00.000","PRA","124766.32143927","241775.15667205001","No","Renovacion - Albors2 00396","Privado","Urbano","JESNEYLA REYES ","(18.209451675415, -67.1445693969726)","18.209451675415","-67.144569396972599"
"2012-025200-API-81798","Planos de Inscripción","2015-02-16T08:49:00.000","2015","2015.02","061-041-032-87","Toa Baja","Los Marquez , Num.  169, Com. Sabana Seca, Sabana Seca, Toa Baja","Central","Cancelado","Adjudicado","2015-03-30T00:00:00.000","API","226258.47418491001","265164.262248029","No","SEGREGACION AIDA BATISTA","Privado","Urbano","AIDA BATISTA ","(18.4219245910644, -66.1847915649414)","18.4219245910644","-66.184791564941406"
"2013-116909-CUB-58711","Consulta de Ubicacion","2015-02-15T18:08:00.000","2015","2015.02","353-000-004-57","Yabucoa","Carr.906, Km.1.6 Int., Aguacate, Playa, Yabucoa","Humacao","Cancelado","Adjudicado","2015-03-20T00:00:00.000","CUB","263280.40993745899","227498.20043950001","No","Luis G. López Morales","Privado","Rural","LUIS  LÓPEZ  MORALES","(18.080846786499, -65.8355407714843)","18.080846786498999","-65.835540771484304"
"2013-197687-API-81795","Planos de Inscripción","2015-02-15T10:57:00.000","2015","2015.02","084-087-080-16","Toa Alta","Carr. Pr-861, Km. 4.3 Interior, Sector La Cuerda, Mucarabones, Toa Alta","Central","Expedido","Adjudicado","2015-03-06T00:00:00.000","API","223805.60679811001","260302.73484357001","No","Sucn. Francisco Díaz Rosa","Privado","Rural","SUCN. FRANCISCO DÍAZ ROSA","(18.3780307769775, -66.2080688476562)","18.3780307769775","-66.208068847656193"
"2012-013447-REC-35456","Solicitud de Recomendaciones","2015-02-14T04:50:00.000","2015","2015.02","328-000-006-32","San Lorenzo","Carr 902, Km5.0, Sector Wiso Gomez, Quebrada Arenas, San Lorenzo","Humacao","Expedido","Adjudicado","2015-04-06T00:00:00.000","REC","252510.43359073901","230241.14809961","No","FORMACION DE SEIS SOLARES RESIDENCIALES","Privado","Rural","ANGEL  GOMEZ HUERTAS","(18.1059188842773, -65.9372100830078)","18.105918884277301","-65.937210083007798"
"2013-212135-REC-35454","Solicitud de Recomendaciones","2015-02-13T15:44:00.000","2015","2015.02","091-068-457-27","Río Grande","Calle # 4, Esquina #6, Lote 17,  Lote 17, Las Vistas De Rio Mar, Mameyes 2, Río Grande","Central","Expedido","Adjudicado","2015-04-06T00:00:00.000","REC","270519.13380418002","261089.203776029","No","Residencia Quiñonez","Privado","Urbano","PABLO QUIÑONEZ ","(18.3841075897216, -65.765998840332)","18.384107589721602","-65.765998840332003"
"2013-159660-REC-35453","Solicitud de Recomendaciones","2015-02-13T15:24:00.000","2015","2015.02","248-014-005-34","Comerío","Calle  A , 0.0, Urb. La Hacienda, Piñas, Comerío","Humacao","Expedido","Adjudicado","2015-04-29T00:00:00.000","REC","221450.58250828","242042.92255484001","No","SUBDIVISION FINCA MARIA TORRES","Privado","Urbano","MARIA TORRES ","(18.2130832672119, -66.2305450439453)","18.2130832672119","-66.230545043945298"
"2013-220188-API-81793","Planos de Inscripción","2015-02-13T14:54:00.000","2015","2015.02","348-089-423-30","Cayey","Carr. 738, Km 2.0, Culebras Alto, Culebras Alto, Cayey","Humacao","Cancelado","Adjudicado","2015-04-24T00:00:00.000","API","231753.42959483","225813.961624669","No","EILEEN BENITEZ - CAYEY","Privado","Rural","EILEEN BENITEZ ","(18.066328048706, -66.1333923339843)","18.066328048706001","-66.133392333984304"
"2013-211708-REC-35451","Solicitud de Recomendaciones","2015-02-13T14:48:00.000","2015","2015.02","091-068-457-28","Río Grande","Call #6, Lote #18, La Vista De Rio Mar, Mameyes 2, Río Grande","Central","Expedido","Adjudicado","2015-04-07T00:00:00.000","REC","270478.06061955","261097.97096599001","No","Residencia Perez","Privado","Urbano","JOSE PEREZ ","(18.3841896057128, -65.7663879394531)","18.384189605712798","-65.766387939453097"
